[{"code":"0002","publicName":"102-РО ОУ","lat":42.73578806107877,"publicNameEN":"SCHOOL No102","lon":23.30512476638862,"id":"0002"},{"code":"0003","publicName":"БЛ. 411 Ж.К. МЛАДОСТ-4","lat":42.636984097682735,"publicNameEN":"BL. 411 MLADOST 4 QR","lon":23.380370352834507,"id":"0003"},{"code":"0004","publicName":"БЛ. 411 Ж.К. МЛАДОСТ-4","lat":42.637877986181586,"publicNameEN":"BL. 411 MLADOST 4 QR","lon":23.381112553938234,"id":"0004"},{"code":"0005","publicName":"БЛ. 411 Ж.К. МЛАДОСТ-4","lat":42.63720467499852,"publicNameEN":"BL. 411 MLADOST 4 QR","lon":23.381301280886987,"id":"0005"},{"code":"0006","publicName":"12-ТИ ДКЦ","lat":42.71922602104475,"publicNameEN":"MEDICAL CENTRE No12","lon":23.268384517592544,"id":"0006"},{"code":"0007","publicName":"12-ТИ ДКЦ","lat":42.7187229261987,"publicNameEN":"MEDICAL CENTRE No12","lon":23.268979653731062,"id":"0007"},{"code":"0008","publicName":"131-ВО СОУ","lat":42.634566146167266,"publicNameEN":"SCHOOL No131","lon":23.380217206864145,"id":"0008"},{"code":"0009","publicName":"131-ВО СОУ","lat":42.63581525952026,"publicNameEN":"SCHOOL No131","lon":23.38037686774114,"id":"0009"},{"code":"0010","publicName":"14-ТИ ДКЦ","lat":42.67963110940418,"publicNameEN":"MEDICAL CENTRE No14","lon":23.311249515114895,"id":"0010"},{"code":"0011","publicName":"14-ТИ ДКЦ","lat":42.678922330996485,"publicNameEN":"MEDICAL CENTRE No14","lon":23.310565070125115,"id":"0011"},{"code":"0012","publicName":"140-ТО СОУ","lat":42.74594998646021,"publicNameEN":"SCHOOL No140","lon":23.27482979349194,"id":"0012"},{"code":"0013","publicName":"140-ТО СОУ","lat":42.74621362229622,"publicNameEN":"SCHOOL No140","lon":23.27476962132736,"id":"0013"},{"code":"0014","publicName":"163-ТО ОУ","lat":42.645438767239405,"publicNameEN":"SCHOOL No163","lon":23.404946048512116,"id":"0014"},{"code":"0015","publicName":"163-ТО ОУ","lat":42.645697684821805,"publicNameEN":"SCHOOL No163","lon":23.404779505772495,"id":"0015"},{"code":"0016","publicName":"20-ТИ ДКЦ","lat":42.67158762243701,"publicNameEN":"MEDICAL CENTRE No20","lon":23.283496973654326,"id":"0016"},{"code":"0017","publicName":"20-ТИ ДКЦ","lat":42.67091590349714,"publicNameEN":"MEDICAL CENTRE No20","lon":23.28236772501799,"id":"0017"},{"code":"0018","publicName":"24-ТИ ДКЦ","lat":42.7370134739809,"publicNameEN":"MEDICAL CENTRE No24","lon":23.301119702787314,"id":"0018"},{"code":"0019","publicName":"24-ТИ ДКЦ","lat":42.7367653645092,"publicNameEN":"MEDICAL CENTRE No24","lon":23.30172346710487,"id":"0019"},{"code":"0020","publicName":"26-ТИ ДКЦ","lat":42.72559543044129,"publicNameEN":"MEDICAL CENTRE No26","lon":23.25494278193501,"id":"0020"},{"code":"0021","publicName":"26-ТИ ДКЦ","lat":42.72504603652234,"publicNameEN":"MEDICAL CENTRE No26","lon":23.255693417012743,"id":"0021"},{"code":"0022","publicName":"ОНКОЛОГИЧЕН ДИСПАНСЕР","lat":42.654883859363885,"publicNameEN":"ONCOLOGY CLINIC","lon":23.370162123767184,"id":"0022"},{"code":"0023","publicName":"ОНКОЛОГИЧЕН ДИСПАНСЕР","lat":42.65463953419443,"publicNameEN":"ONCOLOGY CLINIC","lon":23.369182382693864,"id":"0023"},{"code":"0024","publicName":"28-МИ ДКЦ","lat":42.66481773661149,"publicNameEN":"MEDICAL CENTRE No28","lon":23.406099782284862,"id":"0024"},{"code":"0025","publicName":"28-МИ ДКЦ","lat":42.666172138974616,"publicNameEN":"MEDICAL CENTRE No28","lon":23.40622106694175,"id":"0025"},{"code":"0026","publicName":"28-МИ ДКЦ","lat":42.66552512834725,"publicNameEN":"MEDICAL CENTRE No28","lon":23.406878565654967,"id":"0026"},{"code":"0027","publicName":"28-МИ ДКЦ","lat":42.66569238309307,"publicNameEN":"MEDICAL CENTRE No28","lon":23.406442820951202,"id":"0027"},{"code":"0028","publicName":"28-МИ ДКЦ","lat":42.665523595696065,"publicNameEN":"MEDICAL CENTRE No28","lon":23.40722552489738,"id":"0028"},{"code":"0029","publicName":"36-ТИ ПОЩЕНСКИ КЛОН","lat":42.72040018758049,"publicNameEN":"36th POST OFFICE","lon":23.253309751026617,"id":"0029"},{"code":"0030","publicName":"36-ТИ ПОЩЕНСКИ КЛОН","lat":42.720939409322035,"publicNameEN":"36th POST OFFICE","lon":23.252549113310845,"id":"0030"},{"code":"0031","publicName":"36-ТО СОУ","lat":42.674218435030916,"publicNameEN":"SCHOOL No36","lon":23.287078722326683,"id":"0031"},{"code":"0032","publicName":"36-ТО СОУ","lat":42.673419688304485,"publicNameEN":"SCHOOL No36","lon":23.285986992103272,"id":"0032"},{"code":"0033","publicName":"КВ. ГАРА ИСКЪР","lat":42.662027694170234,"publicNameEN":"GARA ISKAR QR","lon":23.41561141660372,"id":"0033"},{"code":"0034","publicName":"КВ. ГАРА ИСКЪР","lat":42.66200347526253,"publicNameEN":"GARA ISKAR QR","lon":23.415440752003473,"id":"0034"},{"code":"0035","publicName":"КВ. ГАРА ИСКЪР","lat":42.66259461222293,"publicNameEN":"GARA ISKAR QR","lon":23.41472839458064,"id":"0035"},{"code":"0036","publicName":"КВ. ГАРА ИСКЪР","lat":42.66230925791906,"publicNameEN":"GARA ISKAR QR","lon":23.414939691168552,"id":"0036"},{"code":"0037","publicName":"53-ТО ОУ","lat":42.67683804995612,"publicNameEN":"SCHOOL No53","lon":23.23496242810088,"id":"0037"},{"code":"0038","publicName":"53-ТО ОУ","lat":42.67715972517791,"publicNameEN":"SCHOOL No53","lon":23.23520733170509,"id":"0038"},{"code":"0039","publicName":"60-ТО ОУ","lat":42.74221809870013,"publicNameEN":"SCHOOL No60","lon":23.345704757917375,"id":"0039"},{"code":"0040","publicName":"60-ТО ОУ","lat":42.74151658907456,"publicNameEN":"SCHOOL No60","lon":23.345111145773473,"id":"0040"},{"code":"0041","publicName":"66-ТО СОУ","lat":42.672607603925606,"publicNameEN":"SCHOOL No66","lon":23.26195720470788,"id":"0041"},{"code":"0042","publicName":"66-ТО СОУ","lat":42.67271812947171,"publicNameEN":"SCHOOL No66","lon":23.262277886962853,"id":"0042"},{"code":"0043","publicName":"8-МИ ДКЦ","lat":42.7282835289196,"publicNameEN":"MEDICAL CENTRE No8","lon":23.291177896488232,"id":"0043"},{"code":"0044","publicName":"8-МИ ДКЦ","lat":42.730242485056195,"publicNameEN":"MEDICAL CENTRE No8","lon":23.29377336292867,"id":"0044"},{"code":"0045","publicName":"УЛ. ПОЩЕНСКА","lat":42.721835528128075,"publicNameEN":"POSHTENSKA ST","lon":23.34222556010531,"id":"0045"},{"code":"0046","publicName":"УЛ. ПОЩЕНСКА","lat":42.72168707964137,"publicNameEN":"POSHTENSKA ST","lon":23.34186851109926,"id":"0046"},{"code":"0047","publicName":"АВТОБАЗА ИСКЪР","lat":42.678075012663506,"publicNameEN":"ISKAR MOTOR-SERVICE STATION","lon":23.389627909896532,"id":"0047"},{"code":"0048","publicName":"АВТОРЕМОНТНА БАЗА","lat":42.626107182040165,"publicNameEN":"CAR SERVICE STATION","lon":23.446304957017528,"id":"0048"},{"code":"0049","publicName":"АВТОРЕМОНТНА БАЗА","lat":42.62556820066583,"publicNameEN":"CAR SERVICE STATION","lon":23.44672454939353,"id":"0049"},{"code":"0050","publicName":"АВТОСТАНЦИЯ БАНКЯ","lat":42.70861803314698,"publicNameEN":"BANKYA CAR STATION","lon":23.15240142266038,"id":"0050"},{"code":"0051","publicName":"АВТОСТАНЦИЯ БАНКЯ","lat":42.70815889261116,"publicNameEN":"BANKYA CAR STATION","lon":23.15224217709658,"id":"0051"},{"code":"0052","publicName":"АВТОСТАНЦИЯ ГЕО МИЛЕВ","lat":42.678011318434656,"publicNameEN":"GEO MILEV CAR DEPOT","lon":23.370397022545635,"id":"0052"},{"code":"0053","publicName":"АВТОСТАНЦИЯ ГЕО МИЛЕВ","lat":42.67755341320387,"publicNameEN":"GEO MILEV CAR DEPOT","lon":23.370692982361543,"id":"0053"},{"code":"0056","publicName":"АВТОСТАНЦИЯ ИЗТОК","lat":42.7034909579731,"publicNameEN":"IZTOK CAR DEPOT","lon":23.386865789088855,"id":"0056"},{"code":"0057","publicName":"АВТОСТАНЦИЯ ИЗТОК","lat":42.70367896865883,"publicNameEN":"IZTOK CAR DEPOT","lon":23.387093375244586,"id":"0057"},{"code":"0058","publicName":"АВТОСТАНЦИЯ ИЛИЯНЦИ","lat":42.75455876581398,"publicNameEN":"ILIYANTSI CAR DEPOT","lon":23.320638799862884,"id":"0058"},{"code":"0059","publicName":"АВТОСТАНЦИЯ ОБЕЛЯ","lat":42.74195060593067,"publicNameEN":"OBELYA CAR DEPOT","lon":23.277905224714797,"id":"0059"},{"code":"0060","publicName":"АВТОСТАНЦИЯ ОБЕЛЯ","lat":42.742167529625064,"publicNameEN":"OBELYA CAR DEPOT","lon":23.27767250447241,"id":"0060"},{"code":"0062","publicName":"АВТОСТАНЦИЯ ОРЛАНДОВЦИ","lat":42.71514121621321,"publicNameEN":"ORLANDOVTSI CAR DEPOT","lon":23.34212741931927,"id":"0062"},{"code":"0063","publicName":"АВТОСТАНЦИЯ ОРЛАНДОВЦИ","lat":42.71572804522657,"publicNameEN":"ORLANDOVTSI CAR DEPOT","lon":23.342536271842814,"id":"0063"},{"code":"0065","publicName":"БУЛ. ИСТОРИЯ СЛАВЯНОБЪЛГАРСКА","lat":42.71572742239997,"publicNameEN":"ISTORIYA SLAVYANOBULGARSKA BLVD","lon":23.323961588015127,"id":"0065"},{"code":"0066","publicName":"БУЛ. ИСТОРИЯ СЛАВЯНОБЪЛГАРСКА","lat":42.71530746339276,"publicNameEN":"ISTORIYA SLAVYANOBULGARSKA BLVD","lon":23.324403267229997,"id":"0066"},{"code":"0068","publicName":"РЦ ПО ПРОТЕЗИРАНЕ","lat":42.67691851868073,"publicNameEN":"REGIONAL PROSTHETICS CENTRE","lon":23.24961444406711,"id":"0068"},{"code":"0070","publicName":"РЦ ПО ПРОТЕЗИРАНЕ","lat":42.67632058949823,"publicNameEN":"REGIONAL PROSTHETICS CENTRE","lon":23.249537920337644,"id":"0070"},{"code":"0071","publicName":"АЛБЕНА","lat":42.56334314518707,"publicNameEN":"ALBENA","lon":23.36304397710203,"id":"0071"},{"code":"0072","publicName":"АЛБЕНА","lat":42.56290469794401,"publicNameEN":"ALBENA","lon":23.36348838264573,"id":"0072"},{"code":"0073","publicName":"БУЛ. ПЕЙО ЯВОРОВ","lat":42.68309391113817,"publicNameEN":"PEYO YAVOROV BLVD","lon":23.348310620127858,"id":"0073"},{"code":"0074","publicName":"БУЛ. ПЕЙО ЯВОРОВ","lat":42.68233969148906,"publicNameEN":"PEYO YAVOROV BLVD","lon":23.348908795449876,"id":"0074"},{"code":"0075","publicName":"АНЕВА ЧЕШМА","lat":42.540302361295474,"publicNameEN":"ANEVA CHESHMA","lon":23.364975793250963,"id":"0075"},{"code":"0076","publicName":"АНЕВА ЧЕШМА","lat":42.5398032470622,"publicNameEN":"ANEVA CHESHMA","lon":23.364590643963417,"id":"0076"},{"code":"0077","publicName":"АП ДРУЖБА","lat":42.64923690644806,"publicNameEN":"АP DRUZHBA","lon":23.416794740505605,"id":"0077"},{"code":"0078","publicName":"АП ДРУЖБА","lat":42.6491728000635,"publicNameEN":"АP DRUZHBA","lon":23.41692714542142,"id":"0078"},{"code":"0081","publicName":"АП МАЛАШЕВЦИ","lat":42.71525461288147,"publicNameEN":"AP MALASHEVTSI","lon":23.360220131119075,"id":"0081"},{"code":"0082","publicName":"УЛ. Н. ХРЕЛКОВ","lat":42.68719389687293,"publicNameEN":"N. HRELKOV ST","lon":23.232830045535742,"id":"0082"},{"code":"0083","publicName":"УЛ. Н. ХРЕЛКОВ","lat":42.687292416663446,"publicNameEN":"N. HRELKOV ST","lon":23.23237169099424,"id":"0083"},{"code":"0084","publicName":"КОМПЛЕКС НА БАН","lat":42.65376872059699,"publicNameEN":"BULGARIAN ACADEMY OF SCIENCES","lon":23.38866079254497,"id":"0084"},{"code":"0086","publicName":"КОМПЛЕКС НА БАН","lat":42.65370360146175,"publicNameEN":"BULGARIAN ACADEMY OF SCIENCES","lon":23.389279072211405,"id":"0086"},{"code":"0087","publicName":"БАЗА ГАЗСТРОЙ","lat":42.731151693861506,"publicNameEN":"GAZSTROY BASE","lon":23.57266783767863,"id":"0087"},{"code":"0088","publicName":"БАЗА ГАЗСТРОЙ","lat":42.7312706661691,"publicNameEN":"GAZSTROY BASE","lon":23.572281361641526,"id":"0088"},{"code":"0089","publicName":"ТЕХНОТЕСТ","lat":42.6771356167885,"publicNameEN":"TECHNOTEST","lon":23.399365276277607,"id":"0089"},{"code":"0090","publicName":"ТЕХНОТЕСТ","lat":42.67712675922251,"publicNameEN":"TECHNOTEST","lon":23.39768667857098,"id":"0090"},{"code":"0091","publicName":"ТЕХНОТЕСТ","lat":42.67788033314899,"publicNameEN":"TECHNOTEST","lon":23.399383478266003,"id":"0091"},{"code":"0092","publicName":"31-ВО СУЧЕМ","lat":42.68731235452732,"publicNameEN":"SCHOOL No31","lon":23.352414062160452,"id":"0092"},{"code":"0093","publicName":"31-ВО СУЧЕМ","lat":42.68666968742127,"publicNameEN":"SCHOOL No31","lon":23.352774478855654,"id":"0093"},{"code":"0094","publicName":"НЦ ПО РЕХАБИЛИТАЦИЯ","lat":42.6762540692195,"publicNameEN":"NATIONAL REHABILITATION CENTRE","lon":23.268323995222794,"id":"0094"},{"code":"0095","publicName":"НЦ ПО РЕХАБИЛИТАЦИЯ","lat":42.676971971937796,"publicNameEN":"NATIONAL REHABILITATION CENTER","lon":23.267470078974615,"id":"0095"},{"code":"0096","publicName":"НЦ ПО РЕХАБИЛИТАЦИЯ","lat":42.67661724525011,"publicNameEN":"NATIONAL REHABILITATION CENTER","lon":23.26807013095791,"id":"0096"},{"code":"0097","publicName":"НЦ ПО РЕХАБИЛИТАЦИЯ","lat":42.67684382072915,"publicNameEN":"NATIONAL REHABILITATION CENTER","lon":23.268058248291098,"id":"0097"},{"code":"0098","publicName":"НЦ ПО РЕХАБИЛИТАЦИЯ","lat":42.677571627969655,"publicNameEN":"NATIONAL REHABILITATION CENTRE","lon":23.268404144018362,"id":"0098"},{"code":"0099","publicName":"БАНЯТА КВ. ГНИЛЯНЕ","lat":42.80055289731578,"publicNameEN":"GNILYANE QR BATH","lon":23.38004567076223,"id":"0099"},{"code":"0100","publicName":"БАНЯТА КВ. ГНИЛЯНЕ","lat":42.80028850531397,"publicNameEN":"GNILYANE QR BATH","lon":23.380083427004696,"id":"0100"},{"code":"0101","publicName":"БАНЯ ПАНЧАРЕВО","lat":42.60264672608319,"publicNameEN":"PANCHAREVO PUBLIC BATH","lon":23.402827799793954,"id":"0101"},{"code":"0102","publicName":"БАНЯ ПАНЧАРЕВО","lat":42.60290952677764,"publicNameEN":"PANCHAREVO PUBLIC BATH","lon":23.402467513089544,"id":"0102"},{"code":"0103","publicName":"БАРАЖА ЯЗ. ПАСАРЕЛ","lat":42.55006295931091,"publicNameEN":"PASAREL DAM BARRAGE","lon":23.471998317233023,"id":"0103"},{"code":"0104","publicName":"БАРАЖА ЯЗ. ПАСАРЕЛ","lat":42.550089194458906,"publicNameEN":"PASAREL DAM BARRAGE","lon":23.472246907709682,"id":"0104"},{"code":"0105","publicName":"БЛ. 33 Ж.К. СЛАТИНА","lat":42.68831472902494,"publicNameEN":"BL. 33 SLATINA QR","lon":23.375011992188444,"id":"0105"},{"code":"0106","publicName":"ГРОБИЩЕН ПАРК БАНКЯ","lat":42.714417064106954,"publicNameEN":"BANKYA CEMETERY","lon":23.16473168993547,"id":"0106"},{"code":"0107","publicName":"ГРОБИЩЕН ПАРК БАНКЯ","lat":42.71470386787319,"publicNameEN":"BANKYA CEMETERY","lon":23.16621875966562,"id":"0107"},{"code":"0108","publicName":"БЛ. 539 Ж.К.ЛЮЛИН-5","lat":42.71092533714306,"publicNameEN":"BL. 539 LYULIN 5 QR","lon":23.242701912811246,"id":"0108"},{"code":"0109","publicName":"БЛ. 33 Ж.К. СЛАТИНА","lat":42.68810146179765,"publicNameEN":"BL. 33 SLATINA QR","lon":23.37516742058298,"id":"0109"},{"code":"0110","publicName":"БЕТОНОВ ВЪЗЕЛ","lat":42.736550917516226,"publicNameEN":"CONCRETE PRODUCTION HUB","lon":23.32518646275016,"id":"0110"},{"code":"0111","publicName":"БЕТОНОВ ВЪЗЕЛ","lat":42.664767580317516,"publicNameEN":"CONCRETE PRODUCTION HUB","lon":23.455734990221384,"id":"0111"},{"code":"0112","publicName":"БЕТОНОВ ВЪЗЕЛ","lat":42.665008464690374,"publicNameEN":"CONCRETE PRODUCTION HUB","lon":23.455686423222495,"id":"0112"},{"code":"0113","publicName":"БЕТОНОВ ВЪЗЕЛ","lat":42.75386794215932,"publicNameEN":"CONCRETE PRODUCTION HUB","lon":23.27564446067075,"id":"0113"},{"code":"0114","publicName":"БЕТОНОВ ВЪЗЕЛ","lat":42.75430903874616,"publicNameEN":"CONCRETE PRODUCTION HUB","lon":23.275461508311885,"id":"0114"},{"code":"0115","publicName":"БЕТОНОВ ВЪЗЕЛ","lat":42.73628788865275,"publicNameEN":"CONCRETE PRODUCTION HUB","lon":23.324772202714417,"id":"0115"},{"code":"0116","publicName":"БИОМЕТ ЕООД","lat":42.801267456915134,"publicNameEN":"BIOMET","lon":23.264277750881774,"id":"0116"},{"code":"0117","publicName":"БИОМЕТ ЕООД","lat":42.801161057513916,"publicNameEN":"BIOMET","lon":23.26416315232818,"id":"0117"},{"code":"0118","publicName":"109-ТО ОУ","lat":42.68896034863613,"publicNameEN":"SCHOOL No109","lon":23.37069838758807,"id":"0118"},{"code":"0119","publicName":"109-ТО ОУ","lat":42.69009761769921,"publicNameEN":"SCHOOL No109","lon":23.3702333581592,"id":"0119"},{"code":"0120","publicName":"БКС СРЕДЕЦ","lat":42.679218040090795,"publicNameEN":"PUBLIC WORKS AND UTILITIES SREDETS","lon":23.387673597232187,"id":"0120"},{"code":"0121","publicName":"БКС СРЕДЕЦ","lat":42.67949943254857,"publicNameEN":"PUBLIC WORKS AND UTILITIES SREDETS","lon":23.38735197355753,"id":"0121"},{"code":"0122","publicName":"БЛ. 1 Ж.К. ГОРУБЛЯНЕ","lat":42.635183239026404,"publicNameEN":"BL. 1 GORUBLYANE QR","lon":23.40415426380668,"id":"0122"},{"code":"0123","publicName":"БЛ. 22 Ж.К. ДИАНАБАД","lat":42.65825660265765,"publicNameEN":"BL. 22 DIANABAD QR","lon":23.341943641234415,"id":"0123"},{"code":"0124","publicName":"БЛ. 22 Ж.К. ДИАНАБАД","lat":42.65816783941599,"publicNameEN":"BL. 22 DIANABAD QR","lon":23.34260338092977,"id":"0124"},{"code":"0125","publicName":"БЛ. 1 Ж.К. ГОРУБЛЯНЕ","lat":42.634944277115096,"publicNameEN":"BL. 1 GORUBLYANE QR","lon":23.404330904220892,"id":"0125"},{"code":"0126","publicName":"БЛ. 10 Ж.К. ЛЕВСКИ-Г","lat":42.713087763293515,"publicNameEN":"BL. 10 LEVSKI G QR","lon":23.380074162907913,"id":"0126"},{"code":"0127","publicName":"БЛ. 10 Ж.К. ЛЕВСКИ-Г","lat":42.713098312470464,"publicNameEN":"BL. 10 LEVSKI G QR","lon":23.379761617582282,"id":"0127"},{"code":"0128","publicName":"БЛ. 108 Ж.К. ДРУЖБА-1","lat":42.66810315153361,"publicNameEN":"BL. 108 DRUZHBA 1 QR","lon":23.39241698686398,"id":"0128"},{"code":"0129","publicName":"БЛ. 108 Ж.К. ДРУЖБА-1","lat":42.66754471396523,"publicNameEN":"BL. 108 DRUZHBA 1 QR","lon":23.391907262548248,"id":"0129"},{"code":"0130","publicName":"БЛ. 11 Ж.К. ЛЕВСКИ-В","lat":42.70975795392876,"publicNameEN":"BL. 11 LEVSKI V QR","lon":23.384349558458826,"id":"0130"},{"code":"0131","publicName":"БЛ. 11 Ж.К. ЛЕВСКИ-В","lat":42.70966992741133,"publicNameEN":"BL. 11 LEVSKI V QR","lon":23.384236037096713,"id":"0131"},{"code":"0132","publicName":"БЛ. 111 Ж.К. ОБЕЛЯ-1","lat":42.738004374488874,"publicNameEN":"BL. 111 OBELYA 1 QR","lon":23.270940318737125,"id":"0132"},{"code":"0133","publicName":"БЛ. 111 Ж.К. ОБЕЛЯ-1","lat":42.73782912183281,"publicNameEN":"BL. 111 OBELYA 1 QR","lon":23.270643409156268,"id":"0133"},{"code":"0136","publicName":"БЛ. 135 Ж.К. ЛЮЛИН-10","lat":42.7152567245304,"publicNameEN":"BL. 135 LYULIN 1 QR0","lon":23.276923948763624,"id":"0136"},{"code":"0137","publicName":"БЛ. 115 Ж.К. ЛЮЛИН-10","lat":42.71653426866711,"publicNameEN":"BL. 115 LYULIN 10 QR","lon":23.275787483260373,"id":"0137"},{"code":"0138","publicName":"БЛ. 135 Ж.К. ЛЮЛИН-10","lat":42.71510415762682,"publicNameEN":"BL. 135 LYULIN 1 QR0","lon":23.27641509389513,"id":"0138"},{"code":"0139","publicName":"БЛ. 15 Ж.К. ХР. СМИРНЕНСКИ","lat":42.681116531049085,"publicNameEN":"BL. 15 HR. SMIRNENSKI QR","lon":23.375104290529443,"id":"0139"},{"code":"0140","publicName":"БЛ. 15 Ж.К. ХР. СМИРНЕНСКИ","lat":42.68163852757722,"publicNameEN":"BL. 15 HR. SMIRNENSKI QR","lon":23.375416947159444,"id":"0140"},{"code":"0141","publicName":"БЛ. 155 Ж.К. ДРУЖБА-1","lat":42.65790161463084,"publicNameEN":"BL. 155 DRUZHBA 1 QR","lon":23.397920824704478,"id":"0141"},{"code":"0142","publicName":"БЛ. 155 Ж.К. ДРУЖБА-1","lat":42.65798243676729,"publicNameEN":"BL. 155 DRUZHBA 1 QR","lon":23.39747927072876,"id":"0142"},{"code":"0143","publicName":"БЛ. 162 Ж.К. ДРУЖБА-1","lat":42.65738347271735,"publicNameEN":"BL. 162 DRUZHBA 1 QR","lon":23.40151660914457,"id":"0143"},{"code":"0144","publicName":"БЛ. 162 Ж.К. ДРУЖБА-1","lat":42.6574462956722,"publicNameEN":"BL. 162 DRUZHBA 1 QR","lon":23.40263751200181,"id":"0144"},{"code":"0145","publicName":"БЛ. 162 Ж.К. ДРУЖБА-1","lat":42.65819770177878,"publicNameEN":"BL. 162 DRUZHBA 1 QR","lon":23.4022511702265,"id":"0145"},{"code":"0146","publicName":"БЛ. 170 Ж.К. ДРУЖБА-1","lat":42.65575143202904,"publicNameEN":"BL. 170 DRUZHBA 1 QR","lon":23.407254682979072,"id":"0146"},{"code":"0147","publicName":"БЛ. 170 Ж.К. ДРУЖБА-1","lat":42.65638422025261,"publicNameEN":"BL. 170 DRUZHBA 1 QR","lon":23.405894654409618,"id":"0147"},{"code":"0148","publicName":"БЛ. 20 Ж.К. СВОБОДА","lat":42.739735646222066,"publicNameEN":"BL. 20 SVOBODA QR","lon":23.305795190851583,"id":"0148"},{"code":"0149","publicName":"148-МО СОУ","lat":42.68536925623361,"publicNameEN":"SCHOOL No148","lon":23.37182507491494,"id":"0149"},{"code":"0150","publicName":"148-МО СОУ","lat":42.68441863960203,"publicNameEN":"SCHOOL No148","lon":23.371810933678592,"id":"0150"},{"code":"0151","publicName":"БЛ. 20 Ж.К. СВОБОДА","lat":42.73980358887558,"publicNameEN":"BL. 20 SVOBODA QR","lon":23.305412297441116,"id":"0151"},{"code":"0152","publicName":"БЛ. 264 Ж.К. ЛЮЛИН-2","lat":42.72804105912362,"publicNameEN":"BL. 264 LYULIN 2 QR","lon":23.2462820847757,"id":"0152"},{"code":"0153","publicName":"БЛ. 264 Ж.К. ЛЮЛИН-2","lat":42.72803155216574,"publicNameEN":"BL. 264 LYULIN 2 QR","lon":23.246082927621902,"id":"0153"},{"code":"0154","publicName":"БЛ. 202 Ж.К. МЛАДОСТ-2","lat":42.63761321510313,"publicNameEN":"BL. 202 MLADOST 2 QR","lon":23.37032494043452,"id":"0154"},{"code":"0155","publicName":"БЛ. 202 Ж.К. МЛАДОСТ-2","lat":42.63714660721179,"publicNameEN":"BL. 202 MLADOST 2 QR","lon":23.37073674969129,"id":"0155"},{"code":"0157","publicName":"БЛ. 205 Ж.К. МЛАДОСТ-2","lat":42.64183350002016,"publicNameEN":"BL. 205 MLADOST 2 QR","lon":23.370835932876826,"id":"0157"},{"code":"0158","publicName":"БЛ. 206 Ж.К. МЛАДОСТ-2","lat":42.64225465486701,"publicNameEN":"BL. 206 MLADOST 2 QR","lon":23.368496221033407,"id":"0158"},{"code":"0159","publicName":"БЛ. 206 Ж.К. ДРУЖБА-2","lat":42.65505520050974,"publicNameEN":"BL. 206 DRUZHBA 2 QR","lon":23.399505561692866,"id":"0159"},{"code":"0160","publicName":"БЛ. 206 Ж.К. ДРУЖБА-2","lat":42.65561366167212,"publicNameEN":"BL. 206 DRUZHBA 2 QR","lon":23.398981600506563,"id":"0160"},{"code":"0161","publicName":"БЛ. 206 Ж.К. МЛАДОСТ-2","lat":42.64219236239825,"publicNameEN":"BL. 206 MLADOST 2 QR","lon":23.368104021352003,"id":"0161"},{"code":"0162","publicName":"БЛ. 207 Ж.К. ОБЕЛЯ-2","lat":42.74636865697927,"publicNameEN":"BL. 207 OBELYA 2 QR","lon":23.269526231387086,"id":"0162"},{"code":"0163","publicName":"БЛ. 207 Ж.К. ОБЕЛЯ-2","lat":42.74610517678263,"publicNameEN":"BL. 207 OBELYA 2 QR","lon":23.270255179972743,"id":"0163"},{"code":"0164","publicName":"БЛ. 214 Ж.К. БОРОВО","lat":42.66906348427281,"publicNameEN":"BL. 214 BOROVO QR","lon":23.280032228095713,"id":"0164"},{"code":"0165","publicName":"БЛ. 214 Ж.К. БОРОВО","lat":42.66878579866503,"publicNameEN":"BL. 214 BOROVO QR","lon":23.279649275967248,"id":"0165"},{"code":"0166","publicName":"143-ТО ОУ","lat":42.702082074203695,"publicNameEN":"SCHOOL No143","lon":23.35546516900854,"id":"0166"},{"code":"0167","publicName":"БЛ. 222 Ж.К. МЛАДОСТ-2","lat":42.644284912746485,"publicNameEN":"BL. 222 MLADOST 2 QR","lon":23.37443196926707,"id":"0167"},{"code":"0168","publicName":"БЛ. 222 Ж.К. МЛАДОСТ-2","lat":42.645025559823324,"publicNameEN":"BL. 222 MLADOST 2 QR","lon":23.37521974138746,"id":"0168"},{"code":"0169","publicName":"МЕТРОСТАНЦИЯ АЛ. МАЛИНОВ","lat":42.64612589598039,"publicNameEN":"AL. MALINOV METRO STATION","lon":23.37556407861362,"id":"0169"},{"code":"0170","publicName":"МЕТРОСТАНЦИЯ АЛ. МАЛИНОВ","lat":42.647387549438044,"publicNameEN":"AL. MALINOV METRO STATION","lon":23.37667710715943,"id":"0170"},{"code":"0171","publicName":"БЛ. 241 Ж.К. ОБЕЛЯ-2","lat":42.748270058733596,"publicNameEN":"BL. 241 OBELYA 2 QR","lon":23.275899896600514,"id":"0171"},{"code":"0172","publicName":"БЛ. 241 Ж.К. ОБЕЛЯ-2","lat":42.748219064544124,"publicNameEN":"BL. 241 OBELYA 2 QR","lon":23.27694299714678,"id":"0172"},{"code":"0173","publicName":"БЛ. 245 Ж.К. ОБЕЛЯ-2","lat":42.746923785874394,"publicNameEN":"BL. 245 OBELYA 2 QR","lon":23.279575933242725,"id":"0173"},{"code":"0174","publicName":"БЛ. 25 Ж.К. ОВЧА КУПЕЛ-2","lat":42.68885897358548,"publicNameEN":"BL. 25 OVCHA KUPEL 2 QR","lon":23.242906690185798,"id":"0174"},{"code":"0175","publicName":"БЛ. 25 Ж.К. ОВЧА КУПЕЛ-2","lat":42.688707549265736,"publicNameEN":"BL. 25 OVCHA KUPEL 2 QR","lon":23.241711021911396,"id":"0175"},{"code":"0176","publicName":"БЛ. 255 Ж.К. ДРУЖБА-2","lat":42.65269216206306,"publicNameEN":"BL. 255 DRUZHBA 2 QR","lon":23.404028289674983,"id":"0176"},{"code":"0177","publicName":"ПРОМИШЛЕНА ЗОНА Ж.К. ДРУЖБА 1","lat":42.671539229336055,"publicNameEN":"INDUSTRIAL ZONE DRUZHBA 1 QR","lon":23.38227351762374,"id":"0177"},{"code":"0178","publicName":"БЛ. 255 Ж.К. ДРУЖБА-2","lat":42.6518679382502,"publicNameEN":"BL. 255 DRUZHBA 2 QR","lon":23.404747850815784,"id":"0178"},{"code":"0179","publicName":"БЛ. 28 Ж.К. ЛЕВСКИ-Г","lat":42.712642085899596,"publicNameEN":"BL. 28 LEVSKI G QR","lon":23.384297908627204,"id":"0179"},{"code":"0180","publicName":"БЛ. 28 Ж.К. ЛЕВСКИ-Г","lat":42.71326534790188,"publicNameEN":"BL. 28 LEVSKI G QR","lon":23.384860782004857,"id":"0180"},{"code":"0181","publicName":"БЛ. 28 Ж.К. ЛЕВСКИ-Г","lat":42.71296232043508,"publicNameEN":"BL. 28 LEVSKI G QR","lon":23.384449429517367,"id":"0181"},{"code":"0182","publicName":"БЛ. 3 Ж.К. ДРУЖБА-1","lat":42.665646643413346,"publicNameEN":"BL. 3 DRUZHBA 1 QR","lon":23.391382895062904,"id":"0182"},{"code":"0183","publicName":"БЛ. 3 Ж.К. БОТУНЕЦ-1","lat":42.73596456327679,"publicNameEN":"BL. 3 BOTUNETS 1 QR","lon":23.512795705289545,"id":"0183"},{"code":"0184","publicName":"БЛ. 3 Ж.К. ДРУЖБА-1","lat":42.66500515624774,"publicNameEN":"BL. 3 DRUZHBA 1 QR","lon":23.390741231599943,"id":"0184"},{"code":"0185","publicName":"БЛ. 301 Ж.К. ЛЮЛИН-3","lat":42.72330644387296,"publicNameEN":"BL. 301 LYULIN 3 QR","lon":23.24816956815918,"id":"0185"},{"code":"0186","publicName":"БЛ. 301 Ж.К. ЛЮЛИН-3","lat":42.722720175275846,"publicNameEN":"BL. 301 LYULIN 3 QR","lon":23.248966337414846,"id":"0186"},{"code":"0187","publicName":"БЛ. 302 Ж.К. НАДЕЖДА-3","lat":42.73236959200766,"publicNameEN":"BL. 302 NADEZHDA 3 QR","lon":23.28781051875578,"id":"0187"},{"code":"0188","publicName":"БЛ. 302 Ж.К. НАДЕЖДА-3","lat":42.73247892811684,"publicNameEN":"BL. 302 NADEZHDA 3 QR","lon":23.28761037343845,"id":"0188"},{"code":"0189","publicName":"ТЕХНО ПАРК СОФИЯ","lat":42.64931169883967,"publicNameEN":"SOFIA TECHNOPARK","lon":23.40901655323564,"id":"0189"},{"code":"0190","publicName":"ТЕХНО ПАРК СОФИЯ","lat":42.64894748336147,"publicNameEN":"SOFIA TECHNOPARK","lon":23.409091107929584,"id":"0190"},{"code":"0191","publicName":"БЛ. 32 Ж.К. ОВЧА КУПЕЛ-2","lat":42.68930531455724,"publicNameEN":"BL. 32 OVCHA KUPEL 2 QR","lon":23.246458214791442,"id":"0191"},{"code":"0192","publicName":"БЛ. 32 Ж.К. ОВЧА КУПЕЛ-2","lat":42.68929548457823,"publicNameEN":"BL. 32 OVCHA KUPEL 2 QR","lon":23.245398884078604,"id":"0192"},{"code":"0193","publicName":"БЛ. 327 Ж.К. МЛАДОСТ-3","lat":42.64030470820066,"publicNameEN":"BL. 327 MLADOST 3 QR","lon":23.37729080885392,"id":"0193"},{"code":"0194","publicName":"БЛ. 327 Ж.К. МЛАДОСТ-3","lat":42.640320067204065,"publicNameEN":"BL. 327 MLADOST 3 QR","lon":23.37642082796622,"id":"0194"},{"code":"0195","publicName":"БЛ. 35 Ж.К. ЗАХАРНА ФАБРИКА","lat":42.71690614705531,"publicNameEN":"BL. 35 ZAHARNA FABRIKA QR","lon":23.286677980980045,"id":"0195"},{"code":"0196","publicName":"БЛ. 35 Ж.К. ЗАХАРНА ФАБРИКА","lat":42.716992759014225,"publicNameEN":"BL. 35 ZAHARNA FABRIKA QR","lon":23.287092514790736,"id":"0196"},{"code":"0197","publicName":"БЛ. 350 Ж.К. ЛЮЛИН-3","lat":42.72577034038132,"publicNameEN":"BL. 350 LYULIN 3 QR","lon":23.244516905822273,"id":"0197"},{"code":"0198","publicName":"БЛ. 350 Ж.К. ЛЮЛИН-3","lat":42.72501125249128,"publicNameEN":"BL. 350 LYULIN 3 QR","lon":23.24508795395202,"id":"0198"},{"code":"0199","publicName":"БЛ. 350 Ж.К. ЛЮЛИН-3","lat":42.72501308078082,"publicNameEN":"BL. 350 LYULIN 3 QR","lon":23.24480189881689,"id":"0199"},{"code":"0200","publicName":"БЛ. 350 Ж.К. ЛЮЛИН-3","lat":42.72517245480739,"publicNameEN":"BL. 350 LYULIN 3 QR","lon":23.243845750775314,"id":"0200"},{"code":"0201","publicName":"БЛ. 351Б Ж.К. МЛАДОСТ-3","lat":42.637919764793956,"publicNameEN":"BL. 351Б MLADOST 3 QR","lon":23.385368551356574,"id":"0201"},{"code":"0202","publicName":"БЛ. 351Б Ж.К. МЛАДОСТ-3","lat":42.63719686225632,"publicNameEN":"BL. 351Б MLADOST 3 QR","lon":23.38447130803663,"id":"0202"},{"code":"0203","publicName":"БЛ. 39 Ж.К. ГОРУБЛЯНЕ","lat":42.634305034189964,"publicNameEN":"BL. 39 GORUBLYANE QR","lon":23.39895357133072,"id":"0203"},{"code":"0204","publicName":"БЛ. 39 Ж.К. ГОРУБЛЯНЕ","lat":42.634207901074575,"publicNameEN":"BL. 39 GORUBLYANE QR","lon":23.39937411677361,"id":"0204"},{"code":"0205","publicName":"МБАЛ ТОКУДА БОЛНИЦА","lat":42.66756871768537,"publicNameEN":"TOKUDA HOSPITAL","lon":23.325528002882393,"id":"0205"},{"code":"0206","publicName":"МБАЛ ТОКУДА БОЛНИЦА","lat":42.667731114422324,"publicNameEN":"TOKUDA HOSPITAL","lon":23.32707543072764,"id":"0206"},{"code":"0207","publicName":"БЛ. 402 Ж.К. ЛЮЛИН-4","lat":42.71974295145283,"publicNameEN":"BL. 402 LYULIN 4 QR","lon":23.239536693968606,"id":"0207"},{"code":"0209","publicName":"БЛ. 41 Ж.К. МЛАДОСТ-1","lat":42.65659614644606,"publicNameEN":"BL. 41 MLADOST 1 QR","lon":23.376257149511257,"id":"0209"},{"code":"0210","publicName":"БЛ. 41 Ж.К. МЛАДОСТ-1","lat":42.655942218040416,"publicNameEN":"BL. 41 MLADOST 1 QR","lon":23.375173836808983,"id":"0210"},{"code":"0211","publicName":"ТЪРГОВСКИ Ц-Р ОВЧА КУПЕЛ","lat":42.690449846341075,"publicNameEN":"OVCHA KUPEL SHOPPING CENTRE","lon":23.255289416632277,"id":"0211"},{"code":"0212","publicName":"ТЪРГОВСКИ Ц-Р ОВЧА КУПЕЛ","lat":42.69039669703734,"publicNameEN":"OVCHA KUPEL SHOPPING CENTRE","lon":23.253809671491826,"id":"0212"},{"code":"0213","publicName":"БЛ. 427 Ж.К. МЛАДОСТ-4","lat":42.6332888347721,"publicNameEN":"BL. 427 MLADOST 4 QR","lon":23.376764368994692,"id":"0213"},{"code":"0214","publicName":"БЛ. 427 Ж.К. МЛАДОСТ-4","lat":42.633227481603974,"publicNameEN":"BL. 427 MLADOST 4 QR","lon":23.377000566787704,"id":"0214"},{"code":"0215","publicName":"БЛ. 43 Ж.К. ГОРУБЛЯНЕ","lat":42.63538896623166,"publicNameEN":"BL. 43 GORUBLYANE QR","lon":23.40112068182033,"id":"0215"},{"code":"0216","publicName":"БЛ. 43 Ж.К. ГОРУБЛЯНЕ","lat":42.6352444058456,"publicNameEN":"BL. 43 GORUBLYANE QR","lon":23.40097754775198,"id":"0216"},{"code":"0217","publicName":"БЛ. 43 Ж.К. МЛАДОСТ-1","lat":42.65168061221331,"publicNameEN":"BL. 43 MLADOST 1 QR","lon":23.379044317967075,"id":"0217"},{"code":"0218","publicName":"БЛ. 43 Ж.К. МЛАДОСТ-1","lat":42.65252128888255,"publicNameEN":"BL. 43 MLADOST 1 QR","lon":23.37993856271745,"id":"0218"},{"code":"0219","publicName":"БЛ. 437 Ж.К. МЛАДОСТ-4","lat":42.6318478150459,"publicNameEN":"BL. 437 MLADOST 4 QR","lon":23.37512719540876,"id":"0219"},{"code":"0220","publicName":"БЛ. 437 Ж.К. МЛАДОСТ-4","lat":42.631576949354226,"publicNameEN":"BL. 437 MLADOST 4 QR","lon":23.374960319233175,"id":"0220"},{"code":"0221","publicName":"БЛ. 458 Ж.К. НАДЕЖДА-4","lat":42.73761088950607,"publicNameEN":"BL. 458 NADEZHDA 4 QR","lon":23.296709919374987,"id":"0221"},{"code":"0222","publicName":"БЛ. 458 Ж.К. НАДЕЖДА-4","lat":42.73746564975785,"publicNameEN":"BL. 458 NADEZHDA 4 QR","lon":23.298523058562818,"id":"0222"},{"code":"0223","publicName":"БЛ. 465 Ж.К. МЛАДОСТ-4","lat":42.628190489998644,"publicNameEN":"BL. 465 MLADOST 4 QR","lon":23.38326668788538,"id":"0223"},{"code":"0224","publicName":"БЛ. 465 Ж.К. МЛАДОСТ-4","lat":42.62871977812644,"publicNameEN":"BL. 465 MLADOST 4 QR","lon":23.383133042073254,"id":"0224"},{"code":"0225","publicName":"БЛ. 501 Ж.К. ДРУЖБА-2","lat":42.64394889889775,"publicNameEN":"BL. 501 DRUZHBA 2 QR","lon":23.412312593205044,"id":"0225"},{"code":"0226","publicName":"БЛ. 501 Ж.К. ДРУЖБА-2","lat":42.643482414065986,"publicNameEN":"BL. 501 DRUZHBA 2 QR","lon":23.41220725818948,"id":"0226"},{"code":"0227","publicName":"БЛ. 505 Ж.К. ОВЧА КУПЕЛ-1","lat":42.686719707590264,"publicNameEN":"BL. 505 OVCHA KUPEL 1 QR","lon":23.255460181153616,"id":"0227"},{"code":"0228","publicName":"БЛ. 505 Ж.К. ОВЧА КУПЕЛ-1","lat":42.68592837934545,"publicNameEN":"BL. 505 OVCHA KUPEL 1 QR","lon":23.255494142439225,"id":"0228"},{"code":"0229","publicName":"БЛ. 519 Ж.К. ОВЧА КУПЕЛ-1","lat":42.689624760940795,"publicNameEN":"BL. 519 OVCHA KUPEL 1 QR","lon":23.259925369638882,"id":"0229"},{"code":"0230","publicName":"БЛ. 519 Ж.К. ОВЧА КУПЕЛ-1","lat":42.69020868090865,"publicNameEN":"BL. 519 OVCHA KUPEL 1 QR","lon":23.25876787937376,"id":"0230"},{"code":"0231","publicName":"БЛ. 527 Ж.К. ОВЧА КУПЕЛ-1","lat":42.68943057979599,"publicNameEN":"BL. 527 OVCHA KUPEL 1 QR","lon":23.254778343052166,"id":"0231"},{"code":"0232","publicName":"БЛ. 527 Ж.К. ОВЧА КУПЕЛ-1","lat":42.689069380956994,"publicNameEN":"BL. 527 OVCHA KUPEL 1 QR","lon":23.254695620178047,"id":"0232"},{"code":"0233","publicName":"МЕТРОСТАНЦИЯ АЛ. МАЛИНОВ","lat":42.648443084470316,"publicNameEN":"AL. MALINOV METRO STATION","lon":23.375904773462224,"id":"0233"},{"code":"0234","publicName":"МЕТРОСТАНЦИЯ АЛ. МАЛИНОВ","lat":42.64826268824167,"publicNameEN":"AL. MALINOV METRO STATION","lon":23.375608416148786,"id":"0234"},{"code":"0235","publicName":"МЕТРОСТАНЦИЯ ДРУЖБА","lat":42.65957831375789,"publicNameEN":"DRUZHBA METRO STATION","lon":23.39516171791283,"id":"0235"},{"code":"0236","publicName":"МЕТРОСТАНЦИЯ ДРУЖБА","lat":42.66079055907357,"publicNameEN":"DRUZHBA METRO STATION","lon":23.394022322383883,"id":"0236"},{"code":"0237","publicName":"БЛ. 6 Ж.К. МЛАДОСТ-1","lat":42.658425494275285,"publicNameEN":"BL. 6 MLADOST 1 QR","lon":23.378308217632373,"id":"0237"},{"code":"0238","publicName":"БЛ. 6 Ж.К. МЛАДОСТ-1","lat":42.658130490936465,"publicNameEN":"BL. 6 MLADOST 1 QR","lon":23.377686915716115,"id":"0238"},{"code":"0239","publicName":"БЛ. 603 Ж.К. ВРЪБНИЦА-2","lat":42.73868598436283,"publicNameEN":"BL. 603 VRABNITSA 2 QR","lon":23.294607121109536,"id":"0239"},{"code":"0240","publicName":"БЛ. 603 Ж.К. ВРЪБНИЦА-2","lat":42.73932040670308,"publicNameEN":"BL. 603 VRABNITSA 2 QR","lon":23.29454550654369,"id":"0240"},{"code":"0241","publicName":"БЛ. 620 Ж.К. ЛЮЛИН-6","lat":42.708803146493345,"publicNameEN":"BL. 620 LYULIN 6 QR","lon":23.247561965657233,"id":"0241"},{"code":"0242","publicName":"БЛ. 620 Ж.К. ЛЮЛИН-6","lat":42.70862585518734,"publicNameEN":"BL. 620 LYULIN 6 QR","lon":23.248351580486915,"id":"0242"},{"code":"0243","publicName":"БЛ. 630 Ж.К. ЛЮЛИН-6","lat":42.708527428174385,"publicNameEN":"BL. 630 LYULIN 6 QR","lon":23.252259726638552,"id":"0243"},{"code":"0244","publicName":"БЛ. 630 Ж.К. ЛЮЛИН-6","lat":42.708666344692396,"publicNameEN":"BL. 630 LYULIN 6 QR","lon":23.251916583151637,"id":"0244"},{"code":"0245","publicName":"БЛ. 66 Ж.К. МЛАДОСТ-1","lat":42.65056692290692,"publicNameEN":"BL. 66 MLADOST 1 QR","lon":23.37649514137919,"id":"0245"},{"code":"0246","publicName":"БЛ. 66 Ж.К. МЛАДОСТ-1","lat":42.651057719528545,"publicNameEN":"BL. 66 MLADOST 1 QR","lon":23.376324323276016,"id":"0246"},{"code":"0247","publicName":"БЛ. 69 Ж.К. МЛАДОСТ-1","lat":42.64968304104525,"publicNameEN":"BL. 69 MLADOST 1 QR","lon":23.369216261366528,"id":"0247"},{"code":"0248","publicName":"БЛ. 69 Ж.К. МЛАДОСТ-1","lat":42.64934454715627,"publicNameEN":"BL. 69 MLADOST 1 QR","lon":23.370437324413512,"id":"0248"},{"code":"0249","publicName":"БЛ. 7 Ж.К. ХР. СМИРНЕНСКИ","lat":42.68389737749074,"publicNameEN":"BL. 7 HR. SMIRNENSKI QR","lon":23.37635560604149,"id":"0249"},{"code":"0250","publicName":"БЛ. 7 Ж.К. ХР. СМИРНЕНСКИ","lat":42.68457819093995,"publicNameEN":"BL. 7 HR. SMIRNENSKI QR","lon":23.376772071885906,"id":"0250"},{"code":"0251","publicName":"БЛ. 706 Ж.К. ЛЮЛИН-7","lat":42.71333650485715,"publicNameEN":"BL. 706 LYULIN 7 QR","lon":23.264930031412504,"id":"0251"},{"code":"0252","publicName":"БЛ. 706 Ж.К. ЛЮЛИН-7","lat":42.71406353753171,"publicNameEN":"BL. 706 LYULIN 7 QR","lon":23.263863453864417,"id":"0252"},{"code":"0253","publicName":"БЛ. 715 Ж.К. ЛЮЛИН-7","lat":42.7147242402291,"publicNameEN":"BL. 715 LYULIN 7 QR","lon":23.259823445147315,"id":"0253"},{"code":"0254","publicName":"БЛ. 715 Ж.К. ЛЮЛИН-7","lat":42.71476007653276,"publicNameEN":"BL. 715 LYULIN 7 QR","lon":23.258860694854096,"id":"0254"},{"code":"0255","publicName":"БЛ. 89 Ж.К. ДРУЖБА-1","lat":42.67087819354569,"publicNameEN":"BL. 89 DRUZHBA 1 QR","lon":23.386528458757276,"id":"0255"},{"code":"0256","publicName":"БЛ. 98 Ж.К. ДРУЖБА-1","lat":42.66760241567406,"publicNameEN":"BL. 98 DRUZHBA 1 QR","lon":23.38631191357915,"id":"0256"},{"code":"0257","publicName":"БЛ. 98 Ж.К. ДРУЖБА-1","lat":42.66783725418499,"publicNameEN":"BL. 98 DRUZHBA 1 QR","lon":23.38625831690841,"id":"0257"},{"code":"0258","publicName":"БОЛНИЦАТА С. ПОДГУМЕР","lat":42.81343948672707,"publicNameEN":"PODGUMER HOSPITAL","lon":23.40776198874729,"id":"0258"},{"code":"0259","publicName":"УЛ. ЗЕЛЕН БОР","lat":42.605980868434536,"publicNameEN":"ZELEN BOR ST","lon":23.347974179645178,"id":"0259"},{"code":"0260","publicName":"УЛ. ЗЕЛЕН БОР","lat":42.606168345225846,"publicNameEN":"ZELEN BOR ST","lon":23.347884927070513,"id":"0260"},{"code":"0261","publicName":"БОЯНСКА ЦЪРКВА","lat":42.644205525234604,"publicNameEN":"BOYANA CHURCH","lon":23.266055379784103,"id":"0261"},{"code":"0262","publicName":"ГРОБИЩЕН ПАРК БОЯНА","lat":42.65079925220791,"publicNameEN":"BOYANA CEMETERY","lon":23.278434498017194,"id":"0262"},{"code":"0263","publicName":"ГРОБИЩЕН ПАРК БОЯНА","lat":42.65081038923294,"publicNameEN":"BOYANA CEMETERY","lon":23.279005860428846,"id":"0263"},{"code":"0264","publicName":"БОЯНСКО ХАНЧЕ","lat":42.64660770372959,"publicNameEN":"BOYANSKO HANCHE","lon":23.266836342574013,"id":"0264"},{"code":"0265","publicName":"БОЯНСКО ХАНЧЕ","lat":42.64623322153835,"publicNameEN":"BOYANSKO HANCHE","lon":23.267379370186426,"id":"0265"},{"code":"0266","publicName":"БОЯНСКО ХАНЧЕ","lat":42.64635598682262,"publicNameEN":"BOYANSKO HANCHE","lon":23.267244924265334,"id":"0266"},{"code":"0267","publicName":"БОЯНСКО ХАНЧЕ","lat":42.64658107476155,"publicNameEN":"BOYANSKO HANCHE","lon":23.267067222389272,"id":"0267"},{"code":"0268","publicName":"БУЛ. АКАД. ИВ. ГЕШОВ","lat":42.67942940958863,"publicNameEN":"ACAD. IV. GESHOV BLVD","lon":23.30374637022684,"id":"0268"},{"code":"0269","publicName":"БУЛ. АКАД. ИВ. ГЕШОВ","lat":42.68005467082761,"publicNameEN":"ACAD. IV. GESHOV BLVD","lon":23.302516031104698,"id":"0269"},{"code":"0270","publicName":"БУЛ. АКАД. ИВ. ГЕШОВ","lat":42.678608185223666,"publicNameEN":"ACAD. IV. GESHOV BLVD","lon":23.30247759083138,"id":"0270"},{"code":"0271","publicName":"БУЛ. АКАД. ИВ. ГЕШОВ","lat":42.6790903920168,"publicNameEN":"ACAD. IV. GESHOV BLVD","lon":23.301089508326022,"id":"0271"},{"code":"0272","publicName":"БУЛ. АКАД. ИВ. ГЕШОВ","lat":42.6796935446008,"publicNameEN":"ACAD. IV. GESHOV BLVD","lon":23.30393516765277,"id":"0272"},{"code":"0273","publicName":"БУЛ. АКАД. ИВ. ГЕШОВ","lat":42.687098475550656,"publicNameEN":"ACAD. IV. GESHOV BLVD","lon":23.3006304430867,"id":"0273"},{"code":"0274","publicName":"БУЛ. АКАД. ИВ. ГЕШОВ","lat":42.68652510237146,"publicNameEN":"ACAD. IV. GESHOV BLVD","lon":23.29964717182127,"id":"0274"},{"code":"0276","publicName":"БУЛ. АЛ. ПУШКИН","lat":42.6629076393357,"publicNameEN":"AL. PUSHKIN BLVD","lon":23.265664102122496,"id":"0276"},{"code":"0277","publicName":"БУЛ. АЛ. ПУШКИН","lat":42.66036626937715,"publicNameEN":"AL. PUSHKIN BLVD","lon":23.264487142035534,"id":"0277"},{"code":"0278","publicName":"БУЛ. АЛ. ПУШКИН","lat":42.662264422914895,"publicNameEN":"AL. PUSHKIN BLVD","lon":23.265342427189736,"id":"0278"},{"code":"0279","publicName":"БУЛ. АЛ. ПУШКИН","lat":42.659786441430064,"publicNameEN":"AL. PUSHKIN BLVD","lon":23.265644184387007,"id":"0279"},{"code":"0280","publicName":"БУЛ. АЛ. СТАМБОЛИЙСКИ","lat":42.6987933821338,"publicNameEN":"AL. STAMBOLIYSKI BLVD","lon":23.303889744833214,"id":"0280"},{"code":"0281","publicName":"БУЛ. АЛ. СТАМБОЛИЙСКИ","lat":42.702760980624745,"publicNameEN":"AL. STAMBOLIYSKI BLVD","lon":23.28578009730314,"id":"0281"},{"code":"0282","publicName":"БУЛ. АЛ. СТАМБОЛИЙСКИ","lat":42.70180774439958,"publicNameEN":"AL. STAMBOLIYSKI BLVD","lon":23.28536889418598,"id":"0282"},{"code":"0283","publicName":"БУЛ. АЛ. СТАМБОЛИЙСКИ","lat":42.69803717476482,"publicNameEN":"AL. STAMBOLIYSKI BLVD","lon":23.309387607498472,"id":"0283"},{"code":"0284","publicName":"БУЛ. АЛ. СТАМБОЛИЙСКИ","lat":42.699191323662056,"publicNameEN":"AL. STAMBOLIYSKI BLVD","lon":23.310014986682308,"id":"0284"},{"code":"0285","publicName":"БУЛ. АЛ. СТАМБОЛИЙСКИ","lat":42.699650364767415,"publicNameEN":"AL. STAMBOLIYSKI BLVD","lon":23.297031487645274,"id":"0285"},{"code":"0286","publicName":"БУЛ. АЛ. СТАМБОЛИЙСКИ","lat":42.70027378853226,"publicNameEN":"AL. STAMBOLIYSKI BLVD","lon":23.29727595615169,"id":"0286"},{"code":"0287","publicName":"БУЛ. АЛ. СТАМБОЛИЙСКИ","lat":42.6992377022811,"publicNameEN":"AL. STAMBOLIYSKI BLVD","lon":23.30308804031777,"id":"0287"},{"code":"0288","publicName":"БУЛ. БРАТЯ БЪКСТОН","lat":42.675020979236805,"publicNameEN":"BUCKSTONE BROTHERS BLVD","lon":23.27915062466554,"id":"0288"},{"code":"0289","publicName":"БУЛ. БРАТЯ БЪКСТОН","lat":42.67478115957176,"publicNameEN":"BUCKSTONE BROTHERS BLVD","lon":23.27885989164737,"id":"0289"},{"code":"0290","publicName":"БУЛ. БЪЛГАРИЯ","lat":42.67268788856574,"publicNameEN":"BULGARIA BLVD","lon":23.293636348907786,"id":"0290"},{"code":"0291","publicName":"БУЛ. БЪЛГАРИЯ","lat":42.67116290299124,"publicNameEN":"BULGARIA BLVD","lon":23.295205625405,"id":"0291"},{"code":"0292","publicName":"БУЛ. ВАРДАР","lat":42.695905937248085,"publicNameEN":"VARDAR BLVD","lon":23.286228859778245,"id":"0292"},{"code":"0293","publicName":"БУЛ. ВАРДАР","lat":42.69559635819431,"publicNameEN":"VARDAR BLVD","lon":23.287939448328657,"id":"0293"},{"code":"0294","publicName":"БУЛ. ВАРДАР","lat":42.69575863675694,"publicNameEN":"VARDAR BLVD","lon":23.287491314228802,"id":"0294"},{"code":"0295","publicName":"БУЛ. ВАРДАР","lat":42.69574585996134,"publicNameEN":"VARDAR BLVD","lon":23.28676536118901,"id":"0295"},{"code":"0296","publicName":"БУЛ. ВАРДАР","lat":42.69771020289424,"publicNameEN":"VARDAR BLVD","lon":23.28699793878563,"id":"0296"},{"code":"0297","publicName":"БУЛ. ВАСИЛ ЛЕВСКИ","lat":42.69880115045671,"publicNameEN":"VASIL LEVSKI BLVD","lon":23.33540512256167,"id":"0297"},{"code":"0299","publicName":"БУЛ. ВАСИЛ ЛЕВСКИ","lat":42.68825222755703,"publicNameEN":"VASIL LEVSKI BLVD","lon":23.328733573110807,"id":"0299"},{"code":"0300","publicName":"БУЛ. ВАСИЛ ЛЕВСКИ","lat":42.687983970838786,"publicNameEN":"VASIL LEVSKI BLVD","lon":23.329134505169744,"id":"0300"},{"code":"0301","publicName":"БУЛ. ВИТОША","lat":42.68375144715347,"publicNameEN":"VITOSHA BLVD","lon":23.314750052137914,"id":"0301"},{"code":"0302","publicName":"БУЛ. ВИТОША","lat":42.68369530146788,"publicNameEN":"VITOSHA BLVD","lon":23.31416050687811,"id":"0302"},{"code":"0303","publicName":"БУЛ. ВЛАДИМИР ВАЗОВ","lat":42.70273732405624,"publicNameEN":"VLADIMIR VAZOV BLVD","lon":23.35283375113681,"id":"0303"},{"code":"0304","publicName":"БУЛ. ВЪЗКРЕСЕНИЕ","lat":42.69452277206963,"publicNameEN":"VAZKRESENIE BLVD","lon":23.29300004726846,"id":"0304"},{"code":"0305","publicName":"БУЛ. ВЪЗКРЕСЕНИЕ","lat":42.69444358983176,"publicNameEN":"VAZKRESENIE BLVD","lon":23.294979260906512,"id":"0305"},{"code":"0306","publicName":"БУЛ. ВЪЗКРЕСЕНИЕ","lat":42.69408850170141,"publicNameEN":"VAZKRESENIE BLVD","lon":23.29453927597126,"id":"0306"},{"code":"0307","publicName":"БУЛ. ВЪЗКРЕСЕНИЕ","lat":42.694468269849224,"publicNameEN":"VAZKRESENIE BLVD","lon":23.291985585934153,"id":"0307"},{"code":"0308","publicName":"БУЛ. ГОЦЕ ДЕЛЧЕВ","lat":42.671738065252185,"publicNameEN":"GOTSE DELCHEV BLVD","lon":23.293851458211932,"id":"0308"},{"code":"0309","publicName":"БУЛ. ГОЦЕ ДЕЛЧЕВ","lat":42.66573658982664,"publicNameEN":"GOTSE DELCHEV BLVD","lon":23.302273024167917,"id":"0309"},{"code":"0310","publicName":"БУЛ. ГОЦЕ ДЕЛЧЕВ","lat":42.665756085780124,"publicNameEN":"GOTSE DELCHEV BLVD","lon":23.303112170465067,"id":"0310"},{"code":"0311","publicName":"БУЛ. ГОЦЕ ДЕЛЧЕВ","lat":42.67647279048327,"publicNameEN":"GOTSE DELCHEV BLVD","lon":23.289198035721576,"id":"0311"},{"code":"0312","publicName":"БУЛ. ГОЦЕ ДЕЛЧЕВ","lat":42.67164341077935,"publicNameEN":"GOTSE DELCHEV BLVD","lon":23.2940102833749,"id":"0312"},{"code":"0313","publicName":"БУЛ. ГОЦЕ ДЕЛЧЕВ","lat":42.672533777990274,"publicNameEN":"GOTSE DELCHEV BLVD","lon":23.29489766367092,"id":"0313"},{"code":"0314","publicName":"БУЛ. ГОЦЕ ДЕЛЧЕВ","lat":42.67242441429938,"publicNameEN":"GOTSE DELCHEV BLVD","lon":23.295040149434953,"id":"0314"},{"code":"0315","publicName":"БУЛ. Д-Р Г. М. ДИМИТРОВ","lat":42.65889361692743,"publicNameEN":"DR. G. M. DIMITROV BLVD","lon":23.344981148948293,"id":"0315"},{"code":"0316","publicName":"БУЛ. Д-Р Г. М. ДИМИТРОВ","lat":42.65984550005924,"publicNameEN":"DR. G. M. DIMITROV BLVD","lon":23.348733200330642,"id":"0316"},{"code":"0317","publicName":"БУЛ. Д-Р Г. М. ДИМИТРОВ","lat":42.66032962155522,"publicNameEN":"DR. G. M. DIMITROV BLVD","lon":23.34731417194858,"id":"0317"},{"code":"0318","publicName":"БУЛ. Д-Р Г. М. ДИМИТРОВ","lat":42.65840410213723,"publicNameEN":"DR. G. M. DIMITROV BLVD","lon":23.348451860694606,"id":"0318"},{"code":"0319","publicName":"БУЛ. ДЖАВАХАРЛАЛ НЕРУ","lat":42.715543757488696,"publicNameEN":"JAWAHARLAL NEHRU BLVD","lon":23.261298081749327,"id":"0319"},{"code":"0320","publicName":"БУЛ. ДЖАВАХАРЛАЛ НЕРУ","lat":42.715626828841074,"publicNameEN":"JAWAHARLAL NEHRU BLVD","lon":23.261249341598518,"id":"0320"},{"code":"0321","publicName":"БУЛ. ПЕТЪР ДЕРТЛИЕВ","lat":42.71030814658494,"publicNameEN":"DR PETAR DERTLIEV BLVD","lon":23.245592069888566,"id":"0321"},{"code":"0322","publicName":"БУЛ. ПЕТЪР ДЕРТЛИЕВ","lat":42.710066356413975,"publicNameEN":"DR PETAR DERTLIEV BLVD","lon":23.244369061804406,"id":"0322"},{"code":"0323","publicName":"БУЛ. КНЯГИНЯ МАРИЯ ЛУИЗА","lat":42.712185429385556,"publicNameEN":"KN. MARIA LUISA BLVD","lon":23.314967417490536,"id":"0323"},{"code":"0324","publicName":"БУЛ. КНЯГИНЯ МАРИЯ ЛУИЗА","lat":42.712611467665766,"publicNameEN":"KN. MARIA LUISA BLVD","lon":23.31483776134857,"id":"0324"},{"code":"0325","publicName":"БУЛ. К. ВЕЛИЧКОВ","lat":42.706977525958045,"publicNameEN":"K. VELICHKOV BLVD","lon":23.29996167850429,"id":"0325"},{"code":"0326","publicName":"БУЛ. К. ВЕЛИЧКОВ","lat":42.70061899868384,"publicNameEN":"K. VELICHKOV BLVD","lon":23.296534054853733,"id":"0326"},{"code":"0327","publicName":"БУЛ. К. ВЕЛИЧКОВ","lat":42.70052448010082,"publicNameEN":"K. VELICHKOV BLVD","lon":23.296847483405045,"id":"0327"},{"code":"0328","publicName":"БУЛ. К. ВЕЛИЧКОВ","lat":42.70668675443777,"publicNameEN":"K. VELICHKOV BLVD","lon":23.29993331924098,"id":"0328"},{"code":"0329","publicName":"БУЛ. ЛОМСКО ШОСЕ","lat":42.73254990136965,"publicNameEN":"LOMSKO SHOSSE BLVD","lon":23.296565778422135,"id":"0329"},{"code":"0330","publicName":"БУЛ. ЛОМСКО ШОСЕ","lat":42.73416274388283,"publicNameEN":"LOMSKO SHOSSE BLVD","lon":23.290543082821294,"id":"0330"},{"code":"0331","publicName":"УЛ. ХРИСТО СИЛЯНОВ","lat":42.73343609067662,"publicNameEN":"HRISTO SILYANOV ST","lon":23.295240823788955,"id":"0331"},{"code":"0332","publicName":"БУЛ. ЛОМСКО ШОСЕ","lat":42.73253009425876,"publicNameEN":"LOMSKO SHOSSE BLVD","lon":23.296790163805127,"id":"0332"},{"code":"0333","publicName":"БУЛ. ЛОМСКО ШОСЕ","lat":42.73605355802189,"publicNameEN":"LOMSKO SHOSSE BLVD","lon":23.293875521296425,"id":"0333"},{"code":"0334","publicName":"БУЛ. ЛОМСКО ШОСЕ","lat":42.736023429302385,"publicNameEN":"LOMSKO SHOSSE BLVD","lon":23.294147990151025,"id":"0334"},{"code":"0335","publicName":"УЛ. ЛУИ ПАСТЬОР","lat":42.713015825572896,"publicNameEN":"LOUIS PASTEUR ST","lon":23.2659303178666,"id":"0335"},{"code":"0336","publicName":"УЛ. ЛУИ ПАСТЬОР","lat":42.71361270278071,"publicNameEN":"LOUIS PASTEUR ST","lon":23.264944611151346,"id":"0336"},{"code":"0337","publicName":"БУЛ. МАДРИД","lat":42.69600730275114,"publicNameEN":"MADRID BLVD","lon":23.351804819385464,"id":"0337"},{"code":"0338","publicName":"БУЛ. МАДРИД","lat":42.69627174462806,"publicNameEN":"MADRID BLVD","lon":23.35174685521754,"id":"0338"},{"code":"0339","publicName":"БУЛ. ГЕН.Н.СТОЛЕТОВ","lat":42.710956022423154,"publicNameEN":"GEN. N. STOLETOV BLVD","lon":23.310128842427073,"id":"0339"},{"code":"0340","publicName":"БУЛ. ГЕН.Н.СТОЛЕТОВ","lat":42.71121549552413,"publicNameEN":"GEN. N. STOLETOV BLVD","lon":23.309454894787198,"id":"0340"},{"code":"0341","publicName":"БУЛ. НИКОЛА ВАПЦАРОВ","lat":42.66552323206455,"publicNameEN":"NIKOLA VAPTSAROV BLVD","lon":23.3190191181039,"id":"0341"},{"code":"0342","publicName":"БУЛ. НИКОЛА ВАПЦАРОВ","lat":42.66439649982911,"publicNameEN":"NIKOLA VAPTSAROV BLVD","lon":23.317479896129345,"id":"0342"},{"code":"0343","publicName":"БУЛ. НИКОЛА ВАПЦАРОВ","lat":42.6653766574972,"publicNameEN":"NIKOLA VAPTSAROV BLVD","lon":23.31759198430736,"id":"0343"},{"code":"0344","publicName":"БУЛ. НИКОЛА ВАПЦАРОВ","lat":42.66508847764715,"publicNameEN":"NIKOLA VAPTSAROV BLVD","lon":23.318525234893087,"id":"0344"},{"code":"0345","publicName":"БУЛ. НИКОЛА ПЕТКОВ","lat":42.66871589914551,"publicNameEN":"NIKOLA PETKOV BLVD","lon":23.254081443416244,"id":"0345"},{"code":"0346","publicName":"БУЛ. НИКОЛА ПЕТКОВ","lat":42.66925412810531,"publicNameEN":"NIKOLA PETKOV BLVD","lon":23.255502351965724,"id":"0346"},{"code":"0347","publicName":"БУЛ. НИКОЛА ПЕТКОВ","lat":42.66967342289104,"publicNameEN":"NIKOLA PETKOV BLVD","lon":23.25439528458659,"id":"0347"},{"code":"0348","publicName":"БУЛ. НИКОЛА ПЕТКОВ","lat":42.66517559700048,"publicNameEN":"NIKOLA PETKOV BLVD","lon":23.26020887854661,"id":"0348"},{"code":"0349","publicName":"БУЛ. НИКОЛА ПЕТКОВ","lat":42.664940818832825,"publicNameEN":"NIKOLA PETKOV BLVD","lon":23.25971953430403,"id":"0349"},{"code":"0350","publicName":"БУЛ. НИКОЛА ПЕТКОВ","lat":42.66879357978831,"publicNameEN":"NIKOLA PETKOV BLVD","lon":23.255234443269842,"id":"0350"},{"code":"0355","publicName":"БУЛ. ПЕНЧО СЛАВЕЙКОВ","lat":42.68736344567361,"publicNameEN":"PENCHO SLAVEYKOV BLVD","lon":23.310782335520482,"id":"0355"},{"code":"0356","publicName":"БУЛ. ПЕНЧО СЛАВЕЙКОВ","lat":42.68278223094888,"publicNameEN":"PENCHO SLAVEYKOV BLVD","lon":23.314466370916353,"id":"0356"},{"code":"0357","publicName":"БУЛ. ПЕНЧО СЛАВЕЙКОВ","lat":42.68383719134502,"publicNameEN":"PENCHO SLAVEYKOV BLVD","lon":23.315585364557332,"id":"0357"},{"code":"0358","publicName":"БУЛ. ПЕНЧО СЛАВЕЙКОВ","lat":42.68736046940913,"publicNameEN":"PENCHO SLAVEYKOV BLVD","lon":23.31102791198623,"id":"0358"},{"code":"0359","publicName":"НАДЛЕЗ НАДЕЖДА","lat":42.714179362969006,"publicNameEN":"NADEZHDA OVERPASS","lon":23.307836745145632,"id":"0359"},{"code":"0362","publicName":"БУЛ. ПРАГА","lat":42.68996292275474,"publicNameEN":"PRAGUE BLVD","lon":23.313510651509354,"id":"0362"},{"code":"0363","publicName":"БУЛ. ПРАГА","lat":42.68879070086624,"publicNameEN":"PRAGUE BLVD","lon":23.31488753194757,"id":"0363"},{"code":"0364","publicName":"БУЛ. ПРАГА","lat":42.68901633194135,"publicNameEN":"PRAGUE BLVD","lon":23.314468341999397,"id":"0364"},{"code":"0365","publicName":"БУЛ. ПРАГА","lat":"42.68920167287183","publicNameEN":"PRAGUE BLVD","lon":"23.314058335622168","id":"0365"},{"code":"0366","publicName":"БУЛ. ПРАГА","lat":42.68908986074023,"publicNameEN":"PRAGUE BLVD","lon":23.31327139191688,"id":"0366"},{"code":"0367","publicName":"БУЛ. ПРОФ. ЦВ. ЛАЗАРОВ","lat":42.67340294369379,"publicNameEN":"PROF. TSV. LAZAROV BLVD","lon":23.38345556032059,"id":"0367"},{"code":"0368","publicName":"БУЛ. ПРОФ. ЦВ. ЛАЗАРОВ","lat":42.673669371779546,"publicNameEN":"PROF. TSV. LAZAROV BLVD","lon":23.38251572257028,"id":"0368"},{"code":"0369","publicName":"БУЛ. ПРОФ. ЦВ. ЛАЗАРОВ","lat":42.6735453939942,"publicNameEN":"PROF. TSV. LAZAROV BLVD","lon":23.381235029810767,"id":"0369"},{"code":"0370","publicName":"БУЛ. ПРОФ. ЦВ. ЛАЗАРОВ","lat":42.67381894209153,"publicNameEN":"PROF. TSV. LAZAROV BLVD","lon":23.38207736871718,"id":"0370"},{"code":"0371","publicName":"БУЛ. ПРОФ. ЦВ. ЛАЗАРОВ","lat":42.67429711819964,"publicNameEN":"PROF. TSV. LAZAROV BLVD","lon":23.38072165903005,"id":"0371"},{"code":"0372","publicName":"БУЛ. ХРИСТОФОР КОЛУМБ","lat":42.6605572529036,"publicNameEN":"CHRISTOPHER COLUMBUS BLVD","lon":23.392042590409616,"id":"0372"},{"code":"0373","publicName":"БУЛ. ХРИСТОФОР КОЛУМБ","lat":42.66082261638973,"publicNameEN":"CHRISTOPHER COLUMBUS BLVD","lon":23.39144158260168,"id":"0373"},{"code":"0376","publicName":"БУЛ. СЛИВНИЦА","lat":42.704893209334344,"publicNameEN":"SLIVNITSA BLVD","lon":23.31752869570172,"id":"0376"},{"code":"0377","publicName":"БУЛ. СЛИВНИЦА","lat":42.70587486414205,"publicNameEN":"SLIVNITSA BLVD","lon":23.31767325976756,"id":"0377"},{"code":"0378","publicName":"ЖЕНСКИ ПАЗАР","lat":42.70055418321893,"publicNameEN":"WOMEN’S MARKET","lon":23.318043038357477,"id":"0378"},{"code":"0379","publicName":"ЖЕНСКИ ПАЗАР","lat":42.70032156783129,"publicNameEN":"WOMEN’S MARKET","lon":23.31769048857507,"id":"0379"},{"code":"0382","publicName":"БУЛ. ХРИСТО БОТЕВ","lat":42.705766934454616,"publicNameEN":"HRISTO BOTEV BLVD","lon":23.31686732785534,"id":"0382"},{"code":"0383","publicName":"БУЛ. ХРИСТО БОТЕВ","lat":42.70017731840198,"publicNameEN":"HRISTO BOTEV BLVD","lon":23.316454823086477,"id":"0383"},{"code":"0384","publicName":"БУЛ. ХРИСТО БОТЕВ","lat":42.70028057753963,"publicNameEN":"HRISTO BOTEV BLVD","lon":23.315671920117495,"id":"0384"},{"code":"0385","publicName":"БУЛ. ХРИСТО БОТЕВ","lat":42.70505639786303,"publicNameEN":"HRISTO BOTEV BLVD","lon":23.318668813516112,"id":"0385"},{"code":"0386","publicName":"УАСГ","lat":42.68565645339482,"publicNameEN":"UNIVERSITY OF ARCHITECTURE","lon":23.33060894716911,"id":"0386"},{"code":"0387","publicName":"УАСГ","lat":42.68578471214102,"publicNameEN":"UNIVERSITY OF ARCHITECTURE","lon":23.33115905190657,"id":"0387"},{"code":"0388","publicName":"БУЛ. ЦАР БОРИС ІІІ","lat":42.66596687677755,"publicNameEN":"TSAR BORIS ІІІ BLVD","lon":23.25892754077419,"id":"0388"},{"code":"0389","publicName":"БУЛ. ЦАР БОРИС ІІІ","lat":42.6874291212958,"publicNameEN":"TSAR BORIS III BLVD","lon":23.29970932134929,"id":"0389"},{"code":"0390","publicName":"БУЛ. ЦАР БОРИС ІІІ","lat":42.66549860415983,"publicNameEN":"TSAR BORIS ІІІ BLVD","lon":23.259284262239827,"id":"0390"},{"code":"0391","publicName":"БУЛ. ЦАР БОРИС ІІІ","lat":42.66538615811153,"publicNameEN":"TSAR BORIS III BLVD","lon":23.260643318403694,"id":"0391"},{"code":"0392","publicName":"БУЛ. ЦАР БОРИС ІІІ","lat":42.68741685274044,"publicNameEN":"TSAR BORIS III BLVD","lon":23.30117121573961,"id":"0392"},{"code":"0393","publicName":"БУЛ. ЦАР БОРИС ІІІ","lat":42.686170829486926,"publicNameEN":"TSAR BORIS III BLVD","lon":23.300162500656047,"id":"0393"},{"code":"0394","publicName":"БУЛ. ЦАР БОРИС ІІІ","lat":42.68710115470023,"publicNameEN":"TSAR BORIS ІІІ BLVD","lon":23.30093168595871,"id":"0394"},{"code":"0395","publicName":"БУЛ. ЧЕРНИ ВРЪХ","lat":42.68309985085465,"publicNameEN":"CHERNI VRAH BLVD","lon":23.31987606162557,"id":"0395"},{"code":"0396","publicName":"ХОТЕЛ ХИЛТЪН","lat":42.684062670759346,"publicNameEN":"HILTON HOTEL","lon":23.3209676667268,"id":"0396"},{"code":"0397","publicName":"ХОТЕЛ ХИЛТЪН","lat":42.68210607412061,"publicNameEN":"HILTON HOTEL","lon":23.320702774342163,"id":"0397"},{"code":"0398","publicName":"БУЛ. ЧЕРНИ ВРЪХ","lat":42.68308007259823,"publicNameEN":"CHERNI VRAH BLVD","lon":23.322126208244097,"id":"0398"},{"code":"0401","publicName":"БУЛ. ЧЕРНИ ВРЪХ","lat":42.683818886463634,"publicNameEN":"CHERNI VRAH BLVD","lon":23.322045545538472,"id":"0401"},{"code":"0402","publicName":"БУЛ. ШИПЧЕНСКИ ПРОХОД","lat":42.67965268917174,"publicNameEN":"SHIPCHENSKI PROHOD BLVD","lon":23.36134774659218,"id":"0402"},{"code":"0403","publicName":"БУЛ. ШИПЧЕНСКИ ПРОХОД","lat":42.67879390966997,"publicNameEN":"SHIPCHENSKI PROHOD BLVD","lon":23.36082682446532,"id":"0403"},{"code":"0404","publicName":"БУЛАВТО","lat":42.74563811404504,"publicNameEN":"BULAUTO","lon":23.330293755505018,"id":"0404"},{"code":"0405","publicName":"БУЛАВТО","lat":42.74548885096261,"publicNameEN":"BULAUTO","lon":23.330151855089916,"id":"0405"},{"code":"0406","publicName":"БУЛ. ПАНЧО ВЛАДИГЕРОВ","lat":42.723048266196336,"publicNameEN":"PANCHO VLADIGEROV BLVD","lon":23.259563528404456,"id":"0406"},{"code":"0407","publicName":"МАНАСТИР СВ. ЙОАКИМ И АНА","lat":42.56607222589395,"publicNameEN":"STS JOACHIM AND ANNE MONASTERY","lon":23.3633927445168,"id":"0407"},{"code":"0408","publicName":"В.З. БУНКЕРА","lat":42.61034281294966,"publicNameEN":"BUNKERA VILLA ZONE","lon":23.363764584161675,"id":"0408"},{"code":"0409","publicName":"В.З. БУНКЕРА","lat":42.61020350304983,"publicNameEN":"BUNKERA VILLA ZONE","lon":23.363914323465306,"id":"0409"},{"code":"0410","publicName":"БЛ. 4 Ж.К. СУХАТА РЕКА","lat":42.699630446540645,"publicNameEN":"BL. 4 SUHATA REKA QR","lon":23.367510790098677,"id":"0410"},{"code":"0411","publicName":"БЛ. 4 Ж.К. СУХАТА РЕКА","lat":42.69947140165588,"publicNameEN":"BL. 4 SUHATA REKA QR","lon":23.36635057036018,"id":"0411"},{"code":"0412","publicName":"В.З. КИНОЦЕНТЪР","lat":42.637793508200865,"publicNameEN":"KINOTSENTAR VILLA ZONE","lon":23.297401930289876,"id":"0412"},{"code":"0413","publicName":"В.З. КИНОЦЕНТЪР","lat":42.63696074523735,"publicNameEN":"KINOTSENTAR VILLA ZONE","lon":23.29777707533954,"id":"0413"},{"code":"0414","publicName":"ОКОЛОВРЪСТЕН ПЪТ","lat":42.62427881012173,"publicNameEN":"RING ROAD","lon":23.358262364395706,"id":"0414"},{"code":"0415","publicName":"ОКОЛОВРЪСТЕН ПЪТ","lat":42.62423422563763,"publicNameEN":"RING ROAD","lon":23.35756810699792,"id":"0415"},{"code":"0416","publicName":"ВСУ Л.КАРАВЕЛОВ","lat":42.69503830030407,"publicNameEN":"UNIV. OF STR. ENGINEERING AND ARCHITECTURE","lon":23.248900764988917,"id":"0416"},{"code":"0417","publicName":"ВСУ Л.КАРАВЕЛОВ","lat":42.695233469747855,"publicNameEN":"UNIV. OF STR. ENGINEERING AND ARCHITECTURE","lon":23.248163708597748,"id":"0417"},{"code":"0418","publicName":"ВМА","lat":42.68475244115341,"publicNameEN":"MILITARY MEDICAL ACADEMY","lon":23.302081195541728,"id":"0418"},{"code":"0419","publicName":"ВМА","lat":42.68486249647061,"publicNameEN":"MILITARY MEDICAL ACADEMY","lon":23.303001543164623,"id":"0419"},{"code":"0420","publicName":"ВЕЦ ПАСАРЕЛ","lat":42.54356516024582,"publicNameEN":"PASAREL HYDROELECTRIC PLANT","lon":23.48587292325105,"id":"0420"},{"code":"0421","publicName":"ВЕЦ ПАСАРЕЛ","lat":42.54374171444475,"publicNameEN":"PASAREL HYDROELECTRIC PLANT","lon":23.485470529662994,"id":"0421"},{"code":"0422","publicName":"УЛ. ЗЛАТЕН ВЕК","lat":42.622732043367996,"publicNameEN":"ZLATEN VEK ST","lon":23.33282375151633,"id":"0422"},{"code":"0423","publicName":"КВ. МАЛИНОВА ДОЛИНА","lat":42.638301223045715,"publicNameEN":"MALINOVA DOLINA QR","lon":23.35331220768056,"id":"0423"},{"code":"0424","publicName":"УЛ. ГЕРЕНА","lat":42.62572069267191,"publicNameEN":"GERENA ST","lon":23.318259857923614,"id":"0424"},{"code":"0425","publicName":"В.З. ГЕРМАН","lat":42.625411966042,"publicNameEN":"GERMAN VILLA ZONE","lon":23.422472574076625,"id":"0425"},{"code":"0426","publicName":"КВ. МАЛИНОВА ДОЛИНА","lat":42.63800905253355,"publicNameEN":"MALINOVA DOLINA QR","lon":23.353181614137117,"id":"0426"},{"code":"0427","publicName":"УЛ. ЗЛАТЕН ВЕК","lat":42.62250883837841,"publicNameEN":"ZLATEN VEK ST","lon":23.332851006947873,"id":"0427"},{"code":"0428","publicName":"УЛ. ГЕРЕНА","lat":42.62613247864936,"publicNameEN":"GERENA ST","lon":23.3181319606037,"id":"0428"},{"code":"0429","publicName":"В.З. КВ. БОЯНА","lat":42.644924288691726,"publicNameEN":"BOYANA VILLA ZONE","lon":23.278221998212743,"id":"0429"},{"code":"0430","publicName":"В.З. ГЕРМАН","lat":42.62499275042791,"publicNameEN":"GERMAN VILLA ZONE","lon":23.422435597760085,"id":"0430"},{"code":"0431","publicName":"В.З. БАНКЯ","lat":42.696458296826705,"publicNameEN":"BANKYA VILLA ZONE","lon":23.149372785181235,"id":"0431"},{"code":"0432","publicName":"В.З. БАНКЯ","lat":42.6964987425002,"publicNameEN":"BANKYA VILLA ZONE","lon":23.149582659471807,"id":"0432"},{"code":"0433","publicName":"В.З. СУХОДОЛ","lat":42.70121814910385,"publicNameEN":"SUHODOL VILLA ZONE","lon":23.2010747953994,"id":"0433"},{"code":"0434","publicName":"В.З. СУХОДОЛ","lat":42.701191108450395,"publicNameEN":"SUHODOL VILLA ZONE","lon":23.201418242368426,"id":"0434"},{"code":"0435","publicName":"В.З. КВ. БОЯНА","lat":42.644856802387125,"publicNameEN":"BOYANA VILLA ZONE","lon":23.27803456489993,"id":"0435"},{"code":"0436","publicName":"УЛ. 12","lat":42.60541622372229,"publicNameEN":"12th ST","lon":23.366490108218226,"id":"0436"},{"code":"0437","publicName":"УЛ. 12","lat":42.60569577652387,"publicNameEN":"12th ST","lon":23.366433348154747,"id":"0437"},{"code":"0438","publicName":"КРАЯ С. МРАМОР","lat":42.788746920820344,"publicNameEN":"END OF MRAMOR VILLAGE","lon":23.272446810696287,"id":"0438"},{"code":"0439","publicName":"КРАЯ С. МРАМОР","lat":42.788545426203804,"publicNameEN":"END OF MRAMOR VILLAGE","lon":23.272741879267997,"id":"0439"},{"code":"0440","publicName":"ВОЕННА АКАДЕМИЯ","lat":42.692156849489535,"publicNameEN":"MILITARY ACADEMY","lon":23.344364498243888,"id":"0440"},{"code":"0441","publicName":"ВОЕННА АКАДЕМИЯ","lat":42.69271764690498,"publicNameEN":"MILITARY ACADEMY","lon":23.343423809366627,"id":"0441"},{"code":"0442","publicName":"ВОЕННА АКАДЕМИЯ","lat":42.69247142508724,"publicNameEN":"MILITARY ACADEMY","lon":23.343827749155643,"id":"0442"},{"code":"0443","publicName":"УМБАЛ СВ. ЕКАТЕРИНА","lat":42.68603313422191,"publicNameEN":"ST. EKATERINA HOSPITAL","lon":23.3117325372596,"id":"0443"},{"code":"0444","publicName":"УМБАЛ СВ. ЕКАТЕРИНА","lat":42.68554358290832,"publicNameEN":"ST. EKATERINA HOSPITAL","lon":23.312033729234894,"id":"0444"},{"code":"0445","publicName":"УЛ. А. КОНСТАНТИНОВ","lat":42.69747108836206,"publicNameEN":"A. KONSTANTINOV ST","lon":23.12220437702368,"id":"0445"},{"code":"0446","publicName":"УЛ. А. КОНСТАНТИНОВ","lat":42.69731879671925,"publicNameEN":"A. KONSTANTINOV ST","lon":23.121905743828748,"id":"0446"},{"code":"0447","publicName":"УЛ. ЙЕРУСАЛИМ","lat":42.65443320398288,"publicNameEN":"JERUSALEM ST","lon":23.372742000543106,"id":"0447"},{"code":"0449","publicName":"ГАРА ВОЛУЯК","lat":42.75711172567316,"publicNameEN":"VOLUYAK TRAIN STATION","lon":23.24452021946258,"id":"0449"},{"code":"0450","publicName":"ГАРА ВОЛУЯК","lat":42.75687122543615,"publicNameEN":"VOLUYAK TRAIN STATION","lon":23.24437469909985,"id":"0450"},{"code":"0451","publicName":"ГАРА ЗАХАРНА ФАБРИКА","lat":42.712766728713135,"publicNameEN":"ZAHARNA FABRIKA TRAIN STATION","lon":23.292784300245007,"id":"0451"},{"code":"0452","publicName":"ГАРА ЗАХАРНА ФАБРИКА","lat":42.71242770524761,"publicNameEN":"ZAHARNA FABRIKA TRAIN STATION","lon":23.29140211827558,"id":"0452"},{"code":"0453","publicName":"ГАРА ИВАНЯНЕ","lat":42.71705936468502,"publicNameEN":"IVANYANE TRAIN STATION","lon":23.1701267826488,"id":"0453"},{"code":"0454","publicName":"ГАРА ИВАНЯНЕ","lat":42.717065044659044,"publicNameEN":"IVANYANE TRAIN STATION","lon":23.17051104640486,"id":"0454"},{"code":"0455","publicName":"ГАРА КАЗИЧЕНЕ","lat":42.655036664791844,"publicNameEN":"KAZICHENE TRAIN STATION","lon":23.45897304423782,"id":"0455"},{"code":"0456","publicName":"ГАРА КАЗИЧЕНЕ","lat":42.65477337029888,"publicNameEN":"KAZICHENE TRAIN STATION","lon":23.459553468273267,"id":"0456"},{"code":"0457","publicName":"ГАРА КУРИЛО","lat":42.81816472544494,"publicNameEN":"KURILO TRAIN STATION","lon":23.35614282921302,"id":"0457"},{"code":"0459","publicName":"ГАРА КУРИЛО","lat":42.818281349764845,"publicNameEN":"KURILO TRAIN STATION","lon":23.35607110852256,"id":"0459"},{"code":"0460","publicName":"ГАРА ОБЕЛЯ","lat":42.73922911754994,"publicNameEN":"OBELYA TRAIN STATION","lon":23.2646116756674,"id":"0460"},{"code":"0461","publicName":"ГАРА ОБЕЛЯ","lat":42.73866700853703,"publicNameEN":"OBELYA TRAIN STATION","lon":23.26434088730871,"id":"0461"},{"code":"0462","publicName":"ГАРА ПИОНЕР","lat":42.66660394354819,"publicNameEN":"PIONER TRAIN STATION","lon":23.338311356371744,"id":"0462"},{"code":"0465","publicName":"ГАРА ПИОНЕР","lat":42.66672707757973,"publicNameEN":"PIONER TRAIN STATION","lon":23.33820257902874,"id":"0465"},{"code":"0466","publicName":"ГАРА ПОДУЯНЕ","lat":42.69668446236333,"publicNameEN":"PODUYANE TRAIN STATION","lon":23.355967210827746,"id":"0466"},{"code":"0467","publicName":"ГАРА ПОДУЯНЕ","lat":42.69755115071322,"publicNameEN":"PODUYANE TRAIN STATION","lon":23.35443755084887,"id":"0467"},{"code":"0468","publicName":"ГАРА ПОДУЯНЕ","lat":42.696059540645706,"publicNameEN":"PODUYANE TRAIN STATION","lon":23.354747083596767,"id":"0468"},{"code":"0469","publicName":"ГАРА ПОДУЯНЕ","lat":42.69698962208321,"publicNameEN":"PODUYANE TRAIN STATION","lon":23.353579594609986,"id":"0469"},{"code":"0470","publicName":"ГАРА ПОДУЯНЕ","lat":42.69693055233934,"publicNameEN":"PODUYANE TRAIN STATION","lon":23.3540573348375,"id":"0470"},{"code":"0471","publicName":"ГАРА ПОДУЯНЕ","lat":42.697112240214686,"publicNameEN":"PODUYANE TRAIN STATION","lon":23.353518493151654,"id":"0471"},{"code":"0472","publicName":"ГАРА ПОДУЯНЕ","lat":42.69683796398529,"publicNameEN":"PODUYANE TRAIN STATION","lon":23.355805409318958,"id":"0472"},{"code":"0473","publicName":"ГАРА ПОДУЯНЕ","lat":42.69690128423109,"publicNameEN":"PODUYANE TRAIN STATION","lon":23.355497755178842,"id":"0473"},{"code":"0474","publicName":"ГАРА РУДНИЧНА","lat":42.767280253661646,"publicNameEN":"RUDNICHNA TRAIN STATION","lon":23.492614399764513,"id":"0474"},{"code":"0475","publicName":"ГАРА РУДНИЧНА","lat":42.76779300445368,"publicNameEN":"RUDNICHNA TRAIN STATION","lon":23.492889842192056,"id":"0475"},{"code":"0478","publicName":"ГАРА ЯНА","lat":42.727208485418515,"publicNameEN":"YANA TRAIN STATION","lon":23.555200960980354,"id":"0478"},{"code":"0479","publicName":"ГАРА ЯНА","lat":42.72693073747215,"publicNameEN":"YANA TRAIN STATION","lon":23.555189151108596,"id":"0479"},{"code":"0480","publicName":"ГАРА ГОРНА БАНЯ","lat":42.673380585143825,"publicNameEN":"GORNA BANYA TRAIN STATION","lon":23.240391828242384,"id":"0480"},{"code":"0481","publicName":"УЛ. СИНЧЕЦ","lat":42.78180353269028,"publicNameEN":"SINCHETS ST","lon":23.383901711033705,"id":"0481"},{"code":"0482","publicName":"УЛ. СИНЧЕЦ","lat":42.78197214275972,"publicNameEN":"SINCHETS ST","lon":23.384092653060197,"id":"0482"},{"code":"0483","publicName":"ГАРА ГОРНА БАНЯ","lat":42.67436300859946,"publicNameEN":"GORNA BANYA TRAIN STATION","lon":23.240212692527003,"id":"0483"},{"code":"0484","publicName":"УЛ. Т. КАБЛЕШКОВ","lat":42.661954613484475,"publicNameEN":"T. KABLESHKOV ST","lon":23.295435255895253,"id":"0484"},{"code":"0485","publicName":"СТОКОВ БАЗАР ИЛИЯНЦИ","lat":42.739807781716806,"publicNameEN":"ILIYANTSI COMMODITY MARKET","lon":23.30925992674215,"id":"0485"},{"code":"0486","publicName":"86-ТИ ПОЩЕНСКИ КЛОН","lat":42.615066819863245,"publicNameEN":"86th POST OFFICE","lon":23.415835497333138,"id":"0486"},{"code":"0487","publicName":"86-ТИ ПОЩЕНСКИ КЛОН","lat":42.614755993767986,"publicNameEN":"86th POST OFFICE","lon":23.41541471231832,"id":"0487"},{"code":"0488","publicName":"ПРОМИШЛЕНА ЗОНА","lat":42.657941918111796,"publicNameEN":"INDUSTRIAL ZONE","lon":23.425646958571953,"id":"0488"},{"code":"0489","publicName":"ПРОМИШЛЕНА ЗОНА","lat":42.65813501131644,"publicNameEN":"INDUSTRIAL ZONE","lon":23.425410105419566,"id":"0489"},{"code":"0490","publicName":"УЛ. Т. КАБЛЕШКОВ","lat":42.66227089403781,"publicNameEN":"T. KABLESHKOV ST","lon":23.29582599388927,"id":"0490"},{"code":"0491","publicName":"СТОКОВ БАЗАР ИЛИЯНЦИ","lat":42.73899070977046,"publicNameEN":"ILIYANTSI COMMODITY MARKET","lon":23.309574401890682,"id":"0491"},{"code":"0492","publicName":"РЕПУБЛИКАНСКИ НЕВРОДИСПАНСЕР","lat":42.66685579084119,"publicNameEN":"NATIONAL NEUROLOGY CLINIC","lon":23.365068943575135,"id":"0492"},{"code":"0493","publicName":"ИНСТИТУТ ПО ОРТОПЕДИЯ","lat":42.67184856173199,"publicNameEN":"INSTITUTE OF ORTHOPEDICS","lon":23.243074590789597,"id":"0493"},{"code":"0494","publicName":"РЕПУБЛИКАНСКИ НЕВРОДИСПАНСЕР","lat":42.66657724763033,"publicNameEN":"NATIONAL NEUROLOGY CLINIC","lon":23.364231313674882,"id":"0494"},{"code":"0495","publicName":"ГОРСКО СТОПАНСТВО","lat":42.771026564785764,"publicNameEN":"FORESTRY","lon":23.439422754843704,"id":"0495"},{"code":"0496","publicName":"ГОРСКО СТОПАНСТВО","lat":42.770901822831604,"publicNameEN":"FORESTRY","lon":23.439091414830592,"id":"0496"},{"code":"0497","publicName":"ГОРУБЛЯНСКО ХАНЧЕ","lat":42.63807434357826,"publicNameEN":"GORUBLYANSKO HANCHE","lon":23.411530287001607,"id":"0497"},{"code":"0498","publicName":"ГОРУБЛЯНСКО ХАНЧЕ","lat":42.63735248454064,"publicNameEN":"GORUBLYANSKO HANCHE","lon":23.41102087432425,"id":"0498"},{"code":"0499","publicName":"ГОРУБЛЯНСКО ХАНЧЕ","lat":42.63878591691384,"publicNameEN":"GORUBLYANSKO HANCHE","lon":23.412126107124767,"id":"0499"},{"code":"0500","publicName":"ГОРУБЛЯНСКО ХАНЧЕ","lat":42.63832922666483,"publicNameEN":"GORUBLYANSKO HANCHE","lon":23.412397697601868,"id":"0500"},{"code":"0502","publicName":"ЦЕНТЪРА БАНКЯ","lat":42.70713661728762,"publicNameEN":"BANKYA CENTRE","lon":23.148064646680105,"id":"0502"},{"code":"0503","publicName":"ЦЕНТЪРА БАНКЯ","lat":42.70719708868385,"publicNameEN":"BANKYA CENTRE","lon":23.14756714319346,"id":"0503"},{"code":"0504","publicName":"ГРАД БУХОВО","lat":42.76449212735203,"publicNameEN":"BUHOBO TOWN","lon":23.568813290821822,"id":"0504"},{"code":"0505","publicName":"ГРЕБНА БАЗА","lat":42.59809262064211,"publicNameEN":"ROWING BASE","lon":23.406134026596195,"id":"0505"},{"code":"0506","publicName":"ГРЕБНА БАЗА","lat":42.59760561232092,"publicNameEN":"ROWING BASE","lon":23.406585037754553,"id":"0506"},{"code":"0507","publicName":"ГРОБИЩЕН ПАРК НЕГОВАН","lat":42.766788021487336,"publicNameEN":"NEGOVAN CEMETERY","lon":23.408835647869537,"id":"0507"},{"code":"0508","publicName":"ГРОБИЩЕН ПАРК НЕГОВАН","lat":42.76707069380572,"publicNameEN":"NEGOVAN CEMETERY","lon":23.40844308881499,"id":"0508"},{"code":"0509","publicName":"ГРОБИЩЕН ПАРК ДРАГАЛЕВЦИ","lat":42.633596045787264,"publicNameEN":"DRAGALEVTSI CEMETERY","lon":23.310894798843627,"id":"0509"},{"code":"0510","publicName":"ГРОБИЩЕН ПАРК ДРАГАЛЕВЦИ","lat":42.633713378459355,"publicNameEN":"DRAGALEVTSI CEMETERY","lon":23.310603787320268,"id":"0510"},{"code":"0511","publicName":"ЧИТАЛИЩЕ СВ.КИРИЛ И МЕТОДИЙ","lat":42.722192908741405,"publicNameEN":"STS CYRIL AND METHODIUS COMMUNITY CENTRE","lon":23.27048281850078,"id":"0511"},{"code":"0512","publicName":"ЧИТАЛИЩЕ СВ.КИРИЛ И МЕТОДИЙ","lat":42.72234709840576,"publicNameEN":"STS CYRIL AND METHODIUS COMMUNITY CENTRE","lon":23.26991703249883,"id":"0512"},{"code":"0513","publicName":"АВТОСЕРВИЗ","lat":42.71367359733772,"publicNameEN":"CAR SERVICE","lon":23.357213122407988,"id":"0513"},{"code":"0514","publicName":"АВТОСЕРВИЗ","lat":42.713926671092786,"publicNameEN":"CAR SERVICE","lon":23.357681058978862,"id":"0514"},{"code":"0515","publicName":"ДЕПО ИСКЪР","lat":42.655530607162426,"publicNameEN":"ISKAR DEPOT","lon":23.414603096954295,"id":"0515"},{"code":"0516","publicName":"ДЕПО ИСКЪР","lat":42.654460014350505,"publicNameEN":"ISKAR DEPOT","lon":23.410819272062735,"id":"0516"},{"code":"0517","publicName":"ДЕПО ИСКЪР","lat":42.65450231275602,"publicNameEN":"ISKAR DEPOT","lon":23.411089398537005,"id":"0517"},{"code":"0518","publicName":"ДЕПО ИСКЪР","lat":42.65651431705293,"publicNameEN":"ISKAR DEPOT","lon":23.414507882595267,"id":"0518"},{"code":"0519","publicName":"ДЕПО ИСКЪР","lat":42.65616900121705,"publicNameEN":"ISKAR DEPOT","lon":23.41439904718961,"id":"0519"},{"code":"0520","publicName":"ДЕПО ИСКЪР","lat":42.65615301864138,"publicNameEN":"ISKAR DEPOT","lon":23.414525082720186,"id":"0520"},{"code":"0521","publicName":"УЛ. 10-ТИ КИЛОМЕТЪР","lat":42.65224047556241,"publicNameEN":"10-TI KILOMETAR ST","lon":23.223135358624617,"id":"0521"},{"code":"0522","publicName":"УЛ. 10-ТИ КИЛОМЕТЪР","lat":42.652105494464045,"publicNameEN":"10-TI KILOMETAR ST","lon":23.222250656469733,"id":"0522"},{"code":"0523","publicName":"УЛ. ЛАГАДИНА","lat":42.63043259175429,"publicNameEN":"LAGADINA ST","lon":23.314758904571384,"id":"0523"},{"code":"0524","publicName":"ДЕТСКИ ДОМ","lat":42.65361273026663,"publicNameEN":"CHILDREN’S HOME","lon":23.346689818521604,"id":"0524"},{"code":"0525","publicName":"ДЕТСКИ ДОМ","lat":42.673715056907284,"publicNameEN":"CHILDREN’S HOME","lon":23.43032325514098,"id":"0525"},{"code":"0526","publicName":"УЛ. ЛАГАДИНА","lat":42.63066311858423,"publicNameEN":"LAGADINA ST","lon":23.314418211661465,"id":"0526"},{"code":"0527","publicName":"ДЕТСКИ ДОМ","lat":42.67407104868985,"publicNameEN":"CHILDREN’S HOME","lon":23.430963140332025,"id":"0527"},{"code":"0528","publicName":"ДЕТСКИ ДОМ","lat":42.79616591630853,"publicNameEN":"CHILDREN’S HOME","lon":23.339481305415816,"id":"0528"},{"code":"0529","publicName":"ДЕТСКИ ДОМ","lat":42.796254196540595,"publicNameEN":"CHILDREN’S HOME","lon":23.33969021796663,"id":"0529"},{"code":"0530","publicName":"ДЕТСКИ ДОМ","lat":42.65368227707008,"publicNameEN":"CHILDREN’S HOME","lon":23.344490400228008,"id":"0530"},{"code":"0531","publicName":"ДЕТСКИ ДОМ КИНОЦЕНТЪР","lat":42.642426778091554,"publicNameEN":"CHILDREN’S HOME – BOYANA FILM STUDIOS (KINOTSENTAR)","lon":23.289601808086292,"id":"0531"},{"code":"0532","publicName":"ДЕТСКИ ДОМ КИНОЦЕНТЪР","lat":42.642562460896706,"publicNameEN":"CHILDREN’S HOME – BOYANA FILM STUDIOS (KINOTSENTAR)","lon":23.289178324272182,"id":"0532"},{"code":"0533","publicName":"ДЕТСКИ ЯСЛИ","lat":42.64799370593709,"publicNameEN":"DAYCARE CENTRE","lon":23.34155155975459,"id":"0533"},{"code":"0534","publicName":"ДЕТСКИ ЯСЛИ","lat":42.64881969311891,"publicNameEN":"DAYCARE CENTRE","lon":23.34167751223798,"id":"0534"},{"code":"0535","publicName":"ДЕТСКО ГРАДЧЕ","lat":42.61509013179893,"publicNameEN":"CHILDREN’S TOWN","lon":23.40096558440462,"id":"0535"},{"code":"0536","publicName":"ДЕТСКО ГРАДЧЕ","lat":42.61527285771011,"publicNameEN":"CHILDREN’S TOWN","lon":23.40087297936576,"id":"0536"},{"code":"0537","publicName":"ПРОИЗВОДСТВЕН К-С МОСКВА","lat":42.7293078918112,"publicNameEN":"MOSKVA INDUSTRIAL COMPLEX","lon":23.32470113218396,"id":"0537"},{"code":"0538","publicName":"ПРОИЗВОДСТВЕН К-С МОСКВА","lat":42.729228136652345,"publicNameEN":"MOSKVA INDUSTRIAL COMPLEX","lon":23.324549794955256,"id":"0538"},{"code":"0539","publicName":"МОДНА КЪЩА АГРЕСИЯ","lat":42.72771350821073,"publicNameEN":"AGRESIA FASHION HOUSE","lon":23.312621284824424,"id":"0539"},{"code":"0540","publicName":"МОДНА КЪЩА АГРЕСИЯ","lat":42.72719677720513,"publicNameEN":"AGRESIA FASHION HOUSE","lon":23.312516472285314,"id":"0540"},{"code":"0541","publicName":"МОДНА КЪЩА АГРЕСИЯ","lat":42.72693375009442,"publicNameEN":"AGRESIA FASHION HOUSE","lon":23.31251878270128,"id":"0541"},{"code":"0542","publicName":"МОДНА КЪЩА АГРЕСИЯ","lat":42.72659203395426,"publicNameEN":"AGRESIA FASHION HOUSE","lon":23.312102221646324,"id":"0542"},{"code":"0543","publicName":"РИТЕКС АД","lat":42.66531444335738,"publicNameEN":"RITEKS JSC","lon":23.462172754196356,"id":"0543"},{"code":"0544","publicName":"РИТЕКС АД","lat":42.66513746055307,"publicNameEN":"RITEKS JSC","lon":23.461937474277683,"id":"0544"},{"code":"0545","publicName":"ПРОМИШЛЕНА ЗОНА КРИВИНА","lat":42.67038146414911,"publicNameEN":"INDUSTRIAL ZONE KRIVINA","lon":23.464319790449604,"id":"0545"},{"code":"0546","publicName":"БУЛ. РОЖЕН","lat":42.731135918070265,"publicNameEN":"ROZHEN BLVD","lon":23.314070459520234,"id":"0546"},{"code":"0547","publicName":"БУЛ. РОЖЕН","lat":42.730907441918895,"publicNameEN":"ROZHEN BLVD","lon":23.313405666194377,"id":"0547"},{"code":"0548","publicName":"ПРОМИШЛЕНА ЗОНА КРИВИНА","lat":42.67078703262405,"publicNameEN":"INDUSTRIAL ZONE KRIVINA","lon":23.464600962001565,"id":"0548"},{"code":"0549","publicName":"СТИНД","lat":42.73147261666883,"publicNameEN":"STIND STATE FACTORY - 1","lon":23.326202391987472,"id":"0549"},{"code":"0550","publicName":"СТИНД","lat":42.73123290877422,"publicNameEN":"STIND STATE FACTORY - 1","lon":23.325943238196352,"id":"0550"},{"code":"0551","publicName":"СТИНД","lat":42.734170395385256,"publicNameEN":"STIND STATE FACTORY - 2","lon":23.328057712146133,"id":"0551"},{"code":"0553","publicName":"ДЪРЖАВНА ПЕЧАТНИЦА","lat":42.65776785776135,"publicNameEN":"STATE PRINTING HOUSE","lon":23.382571395721765,"id":"0553"},{"code":"0554","publicName":"ДЪРЖАВНА ПЕЧАТНИЦА","lat":42.65664714617382,"publicNameEN":"STATE PRINTING HOUSE","lon":23.38489349235424,"id":"0554"},{"code":"0555","publicName":"ДЪРЖАВНА ПЕЧАТНИЦА","lat":42.65685089984023,"publicNameEN":"STATE PRINTING HOUSE","lon":23.385186786536607,"id":"0555"},{"code":"0556","publicName":"ДЯВОЛСКИ МОСТ","lat":42.56059546697116,"publicNameEN":"DYAVOLSKI BRIDGE","lon":23.422720907579958,"id":"0556"},{"code":"0557","publicName":"ДЯВОЛСКИ МОСТ","lat":42.56028559034462,"publicNameEN":"DYAVOLSKI BRIDGE","lon":23.422443537690175,"id":"0557"},{"code":"0558","publicName":"ЕЗЕРОТО","lat":42.66191568822169,"publicNameEN":"THE LAKE","lon":23.396823291619178,"id":"0558"},{"code":"0559","publicName":"ЕЗЕРОТО","lat":42.66199983149201,"publicNameEN":"THE LAKE","lon":23.397108833168616,"id":"0559"},{"code":"0560","publicName":"ЕЛ. КАНТОН","lat":42.762304131425545,"publicNameEN":"EL. CANTON","lon":23.399454893738426,"id":"0560"},{"code":"0561","publicName":"ЕЛ. КАНТОН","lat":42.76262099247995,"publicNameEN":"EL. CANTON","lon":23.399633098918187,"id":"0561"},{"code":"0562","publicName":"МАХАЛА ЕЛАТА","lat":42.50120834055977,"publicNameEN":"ELATA NEIGHBOURHOOD","lon":23.372146438228228,"id":"0562"},{"code":"0563","publicName":"МАХАЛА ЕЛАТА","lat":42.50102749969237,"publicNameEN":"ELATA NEIGHBOURHOOD","lon":23.372218573656248,"id":"0563"},{"code":"0565","publicName":"БАЛКАНКАР АД","lat":42.68673508486184,"publicNameEN":"BALKANCAR JSC","lon":23.274991337410423,"id":"0565"},{"code":"0566","publicName":"БАЛКАНКАР АД","lat":42.687396296503934,"publicNameEN":"BALKANCAR JSC","lon":23.275765021165135,"id":"0566"},{"code":"0567","publicName":"БАЛКАНКАР АД","lat":42.68709223203558,"publicNameEN":"BALKANCAR JSC","lon":23.275594285427765,"id":"0567"},{"code":"0568","publicName":"БАЛКАНКАР АД","lat":42.686867973664725,"publicNameEN":"BALKANCAR JSC","lon":23.275503160546005,"id":"0568"},{"code":"0570","publicName":"ЕЛЕКТРОТЕРМИЯ","lat":42.7510291408436,"publicNameEN":"ELEKTROTERMIYA","lon":23.50567898193729,"id":"0570"},{"code":"0571","publicName":"ЕЛЕКТРОТЕРМИЯ","lat":42.75127041474835,"publicNameEN":"ELEKTROTERMIYA","lon":23.50542836258618,"id":"0571"},{"code":"0572","publicName":"МЕСТНОСТ ЕЛИТЕ","lat":42.60695802147783,"publicNameEN":"ELITE AREA","lon":23.176640468537965,"id":"0572"},{"code":"0573","publicName":"МЕСТНОСТ ЕЛИТЕ","lat":42.60689768120217,"publicNameEN":"ELITE AREA","lon":23.176366658548183,"id":"0573"},{"code":"0574","publicName":"ЕНЕРГОПРОЕКТ","lat":42.673170441135575,"publicNameEN":"ENERGOPROEKT","lon":23.32416908404538,"id":"0574"},{"code":"0575","publicName":"ЕНЕРГОПРОЕКТ","lat":42.67298259254753,"publicNameEN":"ENERGOPROEKT","lon":23.323692153859167,"id":"0575"},{"code":"0576","publicName":"СОФИЯ ТЕХ ПАРК","lat":42.665916864407826,"publicNameEN":"SOFIA TECH PARK","lon":23.371605507943332,"id":"0576"},{"code":"0577","publicName":"БУЛ. ХРИСТОФОР КОЛУМБ","lat":42.66465949703818,"publicNameEN":"CHRISTOPHER COLUMBUS BLVD","lon":23.389862909481778,"id":"0577"},{"code":"0578","publicName":"БУЛ. ХРИСТОФОР КОЛУМБ","lat":42.66297116376387,"publicNameEN":"CHRISTOPHER COLUMBUS BLVD","lon":23.39143976273981,"id":"0578"},{"code":"0579","publicName":"СОФИЯ ТЕХ ПАРК","lat":42.66553768309481,"publicNameEN":"SOFIA TECH PARK","lon":23.37190822321283,"id":"0579"},{"code":"0580","publicName":"Ж.К. БОРОВО","lat":42.66904062396766,"publicNameEN":"BOROVO QR","lon":23.27971534271254,"id":"0580"},{"code":"0581","publicName":"Ж.К. БОРОВО","lat":42.662025175660325,"publicNameEN":"BOROVO QR","lon":23.284032989186663,"id":"0581"},{"code":"0582","publicName":"Ж.К. БОРОВО","lat":42.661706363800036,"publicNameEN":"BOROVO QR","lon":23.283916076795343,"id":"0582"},{"code":"0584","publicName":"Ж.К. БОТУНЕЦ-2","lat":42.739440620266954,"publicNameEN":"BOTUNETS 2 QR","lon":23.50475701344956,"id":"0584"},{"code":"0585","publicName":"Ж.К. БОТУНЕЦ-2","lat":42.73901826013999,"publicNameEN":"BOTUNETS 2 QR","lon":23.504104178782875,"id":"0585"},{"code":"0586","publicName":"Ж.К. БЪКСТОН","lat":42.65897481475185,"publicNameEN":"BUCKSTONE QR","lon":23.27249896473147,"id":"0586"},{"code":"0587","publicName":"Ж.К. БЪКСТОН","lat":42.65925474681333,"publicNameEN":"BUCKSTONE QR","lon":23.272847095504865,"id":"0587"},{"code":"0588","publicName":"Ж.К. БЪКСТОН","lat":42.65849939498318,"publicNameEN":"BUCKSTONE QR","lon":23.2729596117005,"id":"0588"},{"code":"0589","publicName":"Ж.К. БЪКСТОН","lat":42.67517730103206,"publicNameEN":"BUCKSTONE QR","lon":23.278710546547998,"id":"0589"},{"code":"0590","publicName":"Ж.К. БЪКСТОН","lat":42.67533852051203,"publicNameEN":"BUCKSTONE QR","lon":23.279078308245865,"id":"0590"},{"code":"0591","publicName":"Ж.К. БЪКСТОН","lat":42.659094394359016,"publicNameEN":"BUCKSTONE QR","lon":23.272697689577864,"id":"0591"},{"code":"0592","publicName":"Ж.К. ВРЪБНИЦА-1","lat":42.73491390911474,"publicNameEN":"VRABNITSA 1 QR","lon":23.286014849911442,"id":"0592"},{"code":"0593","publicName":"Ж.К. ВРЪБНИЦА-1","lat":42.73468784089372,"publicNameEN":"VRABNITSA 1 QR","lon":23.28628535424592,"id":"0593"},{"code":"0594","publicName":"Ж.К. ВРЪБНИЦА-2","lat":42.73937582812374,"publicNameEN":"VRABNITSA 2 QR","lon":23.290717427134457,"id":"0594"},{"code":"0595","publicName":"Ж.К. ГЕО МИЛЕВ","lat":42.67659987535402,"publicNameEN":"GEO MILEV QR","lon":23.369832738479747,"id":"0595"},{"code":"0596","publicName":"Ж.К. ГЕО МИЛЕВ","lat":"42.67702999114983","publicNameEN":"GEO MILEV QR","lon":"23.369616667429664","id":"0596"},{"code":"0597","publicName":"Ж.К. ГЕО МИЛЕВ","lat":42.67676040947034,"publicNameEN":"GEO MILEV QR","lon":23.369571360471035,"id":"0597"},{"code":"0598","publicName":"УЛ. ТОДОР КАБЛЕШКОВ","lat":42.65942924404572,"publicNameEN":"TODOR KABLESHKOV ST","lon":23.299436234352942,"id":"0598"},{"code":"0599","publicName":"Ж.К. ГОЦЕ ДЕЛЧЕВ","lat":42.66005951039394,"publicNameEN":"GOTSE DELCHEV QR","lon":23.297204989907396,"id":"0599"},{"code":"0600","publicName":"Ж.К. ГОЦЕ ДЕЛЧЕВ","lat":42.66005791418,"publicNameEN":"GOTSE DELCHEV QR","lon":23.297854343047916,"id":"0600"},{"code":"0601","publicName":"УЛ. ТОДОР КАБЛЕШКОВ","lat":42.65963324168426,"publicNameEN":"TODOR KABLESHKOV ST","lon":23.299289024057188,"id":"0601"},{"code":"0602","publicName":"Ж.К. ДИАНАБАД","lat":42.656996584635344,"publicNameEN":"DIANABAD QR","lon":23.336255542775085,"id":"0602"},{"code":"0603","publicName":"Ж.К. ДИАНАБАД","lat":42.65738308190329,"publicNameEN":"DIANABAD QR","lon":23.338302369925707,"id":"0603"},{"code":"0604","publicName":"Ж.К. ДРУЖБА-1","lat":42.67012851161071,"publicNameEN":"DRUZHBA 1 QR","lon":23.398113723878044,"id":"0604"},{"code":"0605","publicName":"Ж.К. ДРУЖБА-1","lat":42.65375751329323,"publicNameEN":"DRUZHBA 1 QR","lon":23.41346805475705,"id":"0605"},{"code":"0606","publicName":"Ж.К. ДРУЖБА-1","lat":42.67025172428545,"publicNameEN":"DRUZHBA 1 QR","lon":23.397513826226202,"id":"0606"},{"code":"0607","publicName":"Ж.К. ДРУЖБА-1","lat":42.67049505576034,"publicNameEN":"DRUZHBA 1 QR","lon":23.39713226604563,"id":"0607"},{"code":"0608","publicName":"Ж.К. ДРУЖБА-1","lat":42.670706989666755,"publicNameEN":"DRUZHBA 1 QR","lon":23.39727414234562,"id":"0608"},{"code":"0610","publicName":"Ж.К. ЛЮЛИН-3 - УХО","lat":42.72172138431755,"publicNameEN":"LYULIN 3 QR - LOOP","lon":23.240526323705826,"id":"0610"},{"code":"0611","publicName":"Ж.К. ДРУЖБА-2","lat":42.64011592329545,"publicNameEN":"DRUZHBA 2 QR","lon":23.416021817637994,"id":"0611"},{"code":"0612","publicName":"Ж.К. ДРУЖБА-2","lat":42.63979828519819,"publicNameEN":"DRUZHBA 2 QR","lon":23.416209862124365,"id":"0612"},{"code":"0614","publicName":"ЛТУ","lat":42.6537939691994,"publicNameEN":"UNIVERSITY OF FORESTRY","lon":23.35981319425763,"id":"0614"},{"code":"0617","publicName":"ЛТУ","lat":42.653158163538,"publicNameEN":"UNIVERSITY OF FORESTRY","lon":23.35963855335261,"id":"0617"},{"code":"0618","publicName":"Ж.К. ЗАПАДЕН ПАРК","lat":42.70171942048869,"publicNameEN":"ZAPADEN PARK QR","lon":23.277838397940513,"id":"0618"},{"code":"0619","publicName":"Ж.К. ЗАПАДЕН ПАРК","lat":42.70140598101584,"publicNameEN":"ZAPADEN PARK QR","lon":23.27798972248537,"id":"0619"},{"code":"0620","publicName":"Ж.К. ЗАПАДЕН ПАРК","lat":42.70163573101801,"publicNameEN":"ZAPADEN PARK QR","lon":23.27654641596846,"id":"0620"},{"code":"0621","publicName":"ГАРА ЗАХАРНА ФАБРИКА","lat":42.71144662234271,"publicNameEN":"ZAHARNA FABRIKA TRAIN STATION","lon":23.289049050872485,"id":"0621"},{"code":"0622","publicName":"ГАРА ЗАХАРНА ФАБРИКА","lat":42.71185270757639,"publicNameEN":"ZAHARNA FABRIKA TRAIN STATION","lon":23.289154904438337,"id":"0622"},{"code":"0623","publicName":"Ж.К. ИВАН ВАЗОВ","lat":42.67701523176433,"publicNameEN":"IVAN VAZOV QR","lon":23.303329179633657,"id":"0623"},{"code":"0625","publicName":"Ж.К. ИВАН ВАЗОВ","lat":42.67670305897065,"publicNameEN":"IVAN VAZOV QR","lon":23.304753474416785,"id":"0625"},{"code":"0626","publicName":"Ж.К. ИВАН ВАЗОВ","lat":42.6752279582607,"publicNameEN":"IVAN VAZOV QR","lon":23.303510892051502,"id":"0626"},{"code":"0627","publicName":"Ж.К. ДИАНАБАД","lat":42.664904325137904,"publicNameEN":"DIANABAD QR","lon":23.355882767371124,"id":"0627"},{"code":"0630","publicName":"Ж.К. ДИАНАБАД","lat":42.66489430174601,"publicNameEN":"DIANABAD QR","lon":23.355542918740618,"id":"0630"},{"code":"0631","publicName":"Ж.К. КРАСНА ПОЛЯНА","lat":42.691177576381975,"publicNameEN":"KRASNA POLYANA QR","lon":23.27896289057542,"id":"0631"},{"code":"0632","publicName":"Ж.К. КРАСНА ПОЛЯНА","lat":42.690958067350984,"publicNameEN":"KRASNA POLYANA QR","lon":23.278732813963018,"id":"0632"},{"code":"0633","publicName":"Ж.К. КРАСНА ПОЛЯНА","lat":42.69111316679999,"publicNameEN":"KRASNA POLYANA QR","lon":23.279154700626382,"id":"0633"},{"code":"0634","publicName":"Ж.К. КРАСНА ПОЛЯНА","lat":42.69070633459988,"publicNameEN":"KRASNA POLYANA QR","lon":23.278475188774696,"id":"0634"},{"code":"0635","publicName":"Ж.К. КРАСНА ПОЛЯНА","lat":42.69075805731664,"publicNameEN":"KRASNA POLYANA QR","lon":23.2780340942831,"id":"0635"},{"code":"0636","publicName":"Ж.К. КРАСНО СЕЛО","lat":42.6790704074658,"publicNameEN":"KRASNO SELO QR","lon":23.285564843471278,"id":"0636"},{"code":"0638","publicName":"Ж.К. КРАСНО СЕЛО","lat":42.67846399095352,"publicNameEN":"KRASNO SELO QR","lon":23.28418251362764,"id":"0638"},{"code":"0639","publicName":"Ж.К. КРАСНО СЕЛО","lat":42.67878176337853,"publicNameEN":"KRASNO SELO QR","lon":23.285100389264812,"id":"0639"},{"code":"0640","publicName":"Ж.К. КРАСНО СЕЛО","lat":42.678567208583914,"publicNameEN":"KRASNO SELO QR","lon":23.28480762290822,"id":"0640"},{"code":"0644","publicName":"Ж.К. ЛАГЕРА","lat":42.68514445742711,"publicNameEN":"LAGERA QR","lon":23.296961293840923,"id":"0644"},{"code":"0645","publicName":"Ж.К. ЛАГЕРА","lat":42.685027585466614,"publicNameEN":"LAGERA QR","lon":23.29662525545926,"id":"0645"},{"code":"0646","publicName":"Ж.К. ЛЕВСКИ-Г","lat":42.71224770857872,"publicNameEN":"LEVSKI G QR","lon":23.387941070059924,"id":"0646"},{"code":"0649","publicName":"Ж.К. ЛЮЛИН-1,2","lat":42.72991092556744,"publicNameEN":"LYULIN 1,2 QR","lon":23.24716249641563,"id":"0649"},{"code":"0650","publicName":"Ж.К. ЛЮЛИН-1,2","lat":42.72953043915347,"publicNameEN":"LYULIN 1,2 QR","lon":23.247140294220145,"id":"0650"},{"code":"0651","publicName":"Ж.К. ЛЮЛИН-3","lat":42.72175303657056,"publicNameEN":"LYULIN 3 QR","lon":23.24139756425424,"id":"0651"},{"code":"0652","publicName":"Ж.К. ЛЮЛИН-3","lat":42.72052365926382,"publicNameEN":"LYULIN 3 QR","lon":23.242578961332438,"id":"0652"},{"code":"0653","publicName":"Ж.К. ЛЮЛИН-3","lat":42.72106611693267,"publicNameEN":"LYULIN 3 QR","lon":23.241833350230284,"id":"0653"},{"code":"0654","publicName":"Ж.К. ЛЮЛИН-3","lat":42.72110931598463,"publicNameEN":"LYULIN 3 QR","lon":23.24059250745159,"id":"0654"},{"code":"0655","publicName":"Ж.К. ЛЮЛИН-5","lat":42.712958266031244,"publicNameEN":"LYULIN 5 QR","lon":23.238611635387706,"id":"0655"},{"code":"0656","publicName":"Ж.К. ЛЮЛИН-5","lat":42.713333766294625,"publicNameEN":"LYULIN 5 QR","lon":23.238129227020085,"id":"0656"},{"code":"0657","publicName":"Ж.К. ЛЮЛИН-5","lat":42.71646984553438,"publicNameEN":"LYULIN 5 QR","lon":23.237621984671772,"id":"0657"},{"code":"0658","publicName":"ХОТЕЛ АМБАСАДОР","lat":42.638443585978685,"publicNameEN":"AMBASSADOR HOTEL","lon":23.334169384614974,"id":"0658"},{"code":"0659","publicName":"ХОТЕЛ АМБАСАДОР","lat":42.638294452585576,"publicNameEN":"AMBASSADOR HOTEL","lon":23.33442750392768,"id":"0659"},{"code":"0660","publicName":"Ж.К. ЛЕВСКИ-Г","lat":42.71199826593623,"publicNameEN":"LEVSKI G QR","lon":23.37993725722728,"id":"0660"},{"code":"0661","publicName":"Ж.К. МЛАДОСТ-1","lat":42.65118800601661,"publicNameEN":"MLADOST 1 QR","lon":23.367902151896462,"id":"0661"},{"code":"0662","publicName":"Ж.К. МЛАДОСТ-1","lat":42.65101413452142,"publicNameEN":"MLADOST 1 QR","lon":23.367402455593336,"id":"0662"},{"code":"0663","publicName":"Ж.К. МЛАДОСТ-2","lat":42.64520701861144,"publicNameEN":"MLADOST 2 QR","lon":23.367610507838684,"id":"0663"},{"code":"0664","publicName":"Ж.К. МЛАДОСТ-2","lat":42.6455969556565,"publicNameEN":"MLADOST 2 QR","lon":23.367379278649167,"id":"0664"},{"code":"0665","publicName":"Ж.К. МЛАДОСТ-3","lat":42.639123564547376,"publicNameEN":"MLADOST 3 QR","lon":23.386488261816204,"id":"0665"},{"code":"0666","publicName":"Ж.К. МЛАДОСТ-3","lat":42.63909559398119,"publicNameEN":"MLADOST 3 QR","lon":23.386279511837536,"id":"0666"},{"code":"0667","publicName":"Ж.К. МЛАДОСТ-3","lat":42.640407830267954,"publicNameEN":"MLADOST 3 QR","lon":23.38667143403463,"id":"0667"},{"code":"0668","publicName":"Ж.К. МЛАДОСТ-3","lat":42.64058378922405,"publicNameEN":"MLADOST 3 QR","lon":23.386855374428098,"id":"0668"},{"code":"0669","publicName":"Ж.К. МЛАДОСТ-4","lat":42.625779731225194,"publicNameEN":"MLADOST 4 QR","lon":23.384471973352866,"id":"0669"},{"code":"0670","publicName":"Ж.К. МЛАДОСТ-4","lat":42.62548846443853,"publicNameEN":"MLADOST 4 QR","lon":23.38456341178834,"id":"0670"},{"code":"0671","publicName":"Ж.К. МОТОПИСТА","lat":42.66864179478402,"publicNameEN":"MOTOPISTA QR","lon":23.291170933914174,"id":"0671"},{"code":"0672","publicName":"Ж.К. МОТОПИСТА","lat":42.66904234061746,"publicNameEN":"MOTOPISTA QR","lon":23.291490633376508,"id":"0672"},{"code":"0675","publicName":"ОБЩИНА ВРЪБНИЦА","lat":42.73203327365087,"publicNameEN":"MUNICIPALITY OF VRABNITSA","lon":23.285248460542313,"id":"0675"},{"code":"0676","publicName":"ОБЩИНА ВРЪБНИЦА","lat":42.730930676447166,"publicNameEN":"MUNICIPALITY OF VRABNITSA","lon":23.286411070247894,"id":"0676"},{"code":"0677","publicName":"Ж.К. ОБЕЛЯ-1","lat":42.73713662923938,"publicNameEN":"OBELYA 1 QR","lon":23.268203408814873,"id":"0677"},{"code":"0678","publicName":"Ж.К. ОБЕЛЯ-2","lat":42.74606947923847,"publicNameEN":"OBELYA 2 QR","lon":23.281230185154,"id":"0678"},{"code":"0679","publicName":"Ж.К. ОБЕЛЯ-2","lat":42.74842665808389,"publicNameEN":"OBELYA 2 QR","lon":23.276518385155676,"id":"0679"},{"code":"0680","publicName":"Ж.К. ОБЕЛЯ-2","lat":42.74834349366334,"publicNameEN":"OBELYA 2 QR","lon":23.27715086527359,"id":"0680"},{"code":"0681","publicName":"Ж.К. ОБЕЛЯ-2","lat":42.746328720797436,"publicNameEN":"OBELYA 2 QR","lon":23.28073556391616,"id":"0681"},{"code":"0682","publicName":"Ж.К. ОВЧА КУПЕЛ-2","lat":42.68264887671264,"publicNameEN":"OVCHA KUPEL 2 QR","lon":23.243589775430976,"id":"0682"},{"code":"0683","publicName":"Ж.К. ОВЧА КУПЕЛ-2","lat":42.68224056897404,"publicNameEN":"OVCHA KUPEL 2 QR","lon":23.24223009450526,"id":"0683"},{"code":"0684","publicName":"Ж.К. ОВЧА КУПЕЛ-2","lat":42.683055006027395,"publicNameEN":"OVCHA KUPEL 2 QR","lon":23.243603792176575,"id":"0684"},{"code":"0685","publicName":"Ж.К. ОВЧА КУПЕЛ-2","lat":42.682584070239386,"publicNameEN":"OVCHA KUPEL 2 QR","lon":23.24185618594259,"id":"0685"},{"code":"0686","publicName":"Ж.К. СВОБОДА","lat":42.739267535854225,"publicNameEN":"SVOBODA QR","lon":23.30339577581584,"id":"0686"},{"code":"0687","publicName":"Ж.К. СЛАТИНА","lat":42.67990712444718,"publicNameEN":"SLATINA QR","lon":23.371487376023868,"id":"0687"},{"code":"0688","publicName":"Ж.К. СЛАТИНА","lat":42.681307093053654,"publicNameEN":"SLATINA QR","lon":23.372335601989345,"id":"0688"},{"code":"0689","publicName":"Ж.К. СЛАТИНА","lat":42.68104090260367,"publicNameEN":"SLATINA QR","lon":23.37113460208686,"id":"0689"},{"code":"0690","publicName":"Ж.К. СЛАТИНА","lat":42.68034301208634,"publicNameEN":"SLATINA QR","lon":23.37298415101061,"id":"0690"},{"code":"0691","publicName":"Ж.К. ХАДЖИ ДИМИТЪР","lat":42.710741502936244,"publicNameEN":"HADZHI DIMITAR QR","lon":23.36160596279718,"id":"0691"},{"code":"0692","publicName":"Ж.К. ХАДЖИ ДИМИТЪР","lat":42.71015358659458,"publicNameEN":"HADZHI DIMITAR QR","lon":23.34915338480239,"id":"0692"},{"code":"0693","publicName":"Ж.К. ХИПОДРУМА","lat":42.682791291517006,"publicNameEN":"HIPODRUMA QR","lon":23.292492373253562,"id":"0693"},{"code":"0694","publicName":"Ж.К. ХИПОДРУМА","lat":42.682961265586755,"publicNameEN":"HIPODRUMA QR","lon":23.29270846661011,"id":"0694"},{"code":"0695","publicName":"ГАРА ЧЕПИНЦИ","lat":42.76604386550057,"publicNameEN":"CHEPINTSI TRAIN STATION","lon":23.434932719075192,"id":"0695"},{"code":"0696","publicName":"ГАРА ЧЕПИНЦИ","lat":42.76560467441971,"publicNameEN":"CHEPINTSI TRAIN STATION","lon":23.43437524727966,"id":"0696"},{"code":"0697","publicName":"Ж.П. ПРЕЛЕЗ","lat":42.73381446573329,"publicNameEN":"LEVEL CROSSING","lon":23.34349341464559,"id":"0697"},{"code":"0698","publicName":"СОФИЯ МЕЛ АД","lat":42.7069352900161,"publicNameEN":"SOFIA MEL JSC","lon":23.338844700871277,"id":"0698"},{"code":"0699","publicName":"Ж.П. ПРЕЛЕЗ","lat":42.732171204213905,"publicNameEN":"LEVEL CROSSING","lon":23.321654903140526,"id":"0699"},{"code":"0700","publicName":"Ж.П. ПРЕЛЕЗ","lat":42.73323311238224,"publicNameEN":"LEVEL CROSSING","lon":23.322316505355317,"id":"0700"},{"code":"0701","publicName":"СОФИЯ МЕЛ АД","lat":42.70691686734759,"publicNameEN":"SOFIA MEL JSC","lon":23.33941145015052,"id":"0701"},{"code":"0702","publicName":"Ж.П. ПРЕЛЕЗ","lat":42.752532887969245,"publicNameEN":"LEVEL CROSSING","lon":23.501189117982346,"id":"0702"},{"code":"0703","publicName":"Ж.П. ПРЕЛЕЗ","lat":42.7527465726201,"publicNameEN":"LEVEL CROSSING","lon":23.501533128962933,"id":"0703"},{"code":"0704","publicName":"Ж.П. ПРЕЛЕЗ","lat":42.754568840551585,"publicNameEN":"LEVEL CROSSING","lon":23.212604954068386,"id":"0704"},{"code":"0705","publicName":"Ж.П. ПРЕЛЕЗ","lat":42.75422605063505,"publicNameEN":"LEVEL CROSSING","lon":23.212909842114115,"id":"0705"},{"code":"0706","publicName":"БУЛ. ВАРДАР","lat":42.70226697571156,"publicNameEN":"VARDAR BLVD","lon":23.286104862809587,"id":"0706"},{"code":"0707","publicName":"БУЛ. ВАРДАР","lat":42.70215067505884,"publicNameEN":"VARDAR BLVD","lon":23.28652312309165,"id":"0707"},{"code":"0708","publicName":"БУЛ. АЛ. СТАМБОЛИЙСКИ","lat":42.70241210347076,"publicNameEN":"AL. STAMBOLIYSKI BLVD","lon":23.28513545890111,"id":"0708"},{"code":"0709","publicName":"БУЛ. АЛ. СТАМБОЛИЙСКИ","lat":42.702850631255494,"publicNameEN":"AL. STAMBOLIYSKI BLVD","lon":23.285199370437464,"id":"0709"},{"code":"0710","publicName":"Ж.П. ПРЕЛЕЗ","lat":42.732964013137455,"publicNameEN":"LEVEL CROSSING","lon":23.343454930831523,"id":"0710"},{"code":"0711","publicName":"УЛ. КНЯГИНЯ КОСАРА","lat":42.69732803029709,"publicNameEN":"KNYAGINYA KOSARA ST","lon":23.37521068345164,"id":"0711"},{"code":"0712","publicName":"УЛ. КНЯГИНЯ КОСАРА","lat":42.69688439711105,"publicNameEN":"KNYAGINYA KOSARA ST","lon":23.375126320752788,"id":"0712"},{"code":"0713","publicName":"ПАРКА С.КРИВИНА","lat":42.67366244657067,"publicNameEN":"KRIVINA PARK","lon":23.465792159392567,"id":"0713"},{"code":"0714","publicName":"ПАРКА С.КРИВИНА","lat":42.67318532465662,"publicNameEN":"KRIVINA PARK","lon":23.46580276979082,"id":"0714"},{"code":"0715","publicName":"СПИИДО ЕООД","lat":42.721122344226146,"publicNameEN":"SPEEDO LTD","lon":23.28470116238529,"id":"0715"},{"code":"0716","publicName":"СПИИДО ЕООД","lat":42.72049865638659,"publicNameEN":"SPEEDO LTD","lon":23.28530766666847,"id":"0716"},{"code":"0717","publicName":"КОТЛОСТРОЕНЕ АД","lat":42.718622401052905,"publicNameEN":"KOTLOSTROENE JSC","lon":23.31566540394085,"id":"0717"},{"code":"0718","publicName":"КОТЛОСТРОЕНЕ АД","lat":42.71863680236107,"publicNameEN":"KOTLOSTROENE JSC","lon":23.316328650851688,"id":"0718"},{"code":"0719","publicName":"НУ ЗА ТАНЦОВО ИЗКУСТВО","lat":42.67836935086231,"publicNameEN":"NATIONAL SCHOOL OF DANCE ART","lon":23.365827912855913,"id":"0719"},{"code":"0720","publicName":"НУ ЗА ТАНЦОВО ИЗКУСТВО","lat":42.67851732937207,"publicNameEN":"NATIONAL SCHOOL OF DANCE ART","lon":23.365358932932594,"id":"0720"},{"code":"0721","publicName":"УЛ. 5007","lat":42.67097889673589,"publicNameEN":"5007th ST","lon":23.40898715876866,"id":"0721"},{"code":"0722","publicName":"УЛ. 5007","lat":42.67064343202397,"publicNameEN":"5007th ST","lon":23.409235714123696,"id":"0722"},{"code":"0723","publicName":"УЛ. ПОРУЧИК ХР. ТОПРАКЧИЕВ","lat":42.668818122971196,"publicNameEN":"POR. HR. TOPRAKCHIEV ST","lon":23.412203788510695,"id":"0723"},{"code":"0724","publicName":"УЛ. ПОРУЧИК ХР. ТОПРАКЧИЕВ","lat":42.668459003983166,"publicNameEN":"POR. HR. TOPRAKCHIEV ST","lon":23.4124807838695,"id":"0724"},{"code":"0725","publicName":"ЗАГ ДИНАМИК АД","lat":42.73199334145273,"publicNameEN":"DYNAMIC LTD","lon":23.317311969373627,"id":"0725"},{"code":"0726","publicName":"ЗАГ ДИНАМИК АД","lat":42.73192550852347,"publicNameEN":"DYNAMIC LTD","lon":23.317100444161003,"id":"0726"},{"code":"0727","publicName":"ЗАГ ДИНАМИК АД","lat":42.731798216079255,"publicNameEN":"DYNAMIC LTD","lon":23.317224425910705,"id":"0727"},{"code":"0728","publicName":"ЗАГ ДИНАМИК АД","lat":42.73163456643452,"publicNameEN":"DYNAMIC LTD","lon":23.317151954933426,"id":"0728"},{"code":"0729","publicName":"ЗАЛА ФЕСТИВАЛНА","lat":42.68489169545136,"publicNameEN":"FESTIVALNA HALL","lon":23.36505527903363,"id":"0729"},{"code":"0730","publicName":"ЗАЛА ФЕСТИВАЛНА","lat":42.68457695671144,"publicNameEN":"FESTIVALNA HALL","lon":23.364505586022435,"id":"0730"},{"code":"0731","publicName":"ЗАСЛОН СИНАНИЦА","lat":42.55825363311968,"publicNameEN":"SINANITSA SHELTER","lon":23.449907371181926,"id":"0731"},{"code":"0732","publicName":"ЗАСЛОН СИНАНИЦА","lat":42.55862703395796,"publicNameEN":"SINANITSA SHELTER","lon":23.449400594291202,"id":"0732"},{"code":"0733","publicName":"УЛ. 44","lat":42.60777596451994,"publicNameEN":"44th ST","lon":23.36718290813794,"id":"0733"},{"code":"0734","publicName":"УЛ. 44","lat":42.60808177976097,"publicNameEN":"44th ST","lon":23.367018580927247,"id":"0734"},{"code":"0735","publicName":"МЕСТНОСТ КАЛАЙДЖИЙКАТА","lat":42.66820656480904,"publicNameEN":"KALAYDZHIYKATA AREA","lon":23.446872247456472,"id":"0735"},{"code":"0736","publicName":"ЗЕЛЕНЧУКОВА ГРАДИНА","lat":42.75056056252368,"publicNameEN":"VEGETABLE GARDEN","lon":23.399104565422146,"id":"0736"},{"code":"0737","publicName":"ЗЕЛЕНЧУКОВА ГРАДИНА","lat":42.750420449493845,"publicNameEN":"VEGETABLE GARDEN","lon":23.39926902593256,"id":"0737"},{"code":"0738","publicName":"ЗЕЛЕНЧУКОВА ГРАДИНА","lat":42.744253070867664,"publicNameEN":"VEGETABLE GARDEN","lon":23.409069456769377,"id":"0738"},{"code":"0739","publicName":"ЗЕЛЕНЧУКОВА ГРАДИНА","lat":42.743839550873076,"publicNameEN":"VEGETABLE GARDEN","lon":23.4087363039246,"id":"0739"},{"code":"0740","publicName":"МЕСТНОСТ КАЛАЙДЖИЙКАТА","lat":42.667810870375135,"publicNameEN":"KALAYDZHIYKATA AREA","lon":23.447331734477032,"id":"0740"},{"code":"0741","publicName":"ЗИМЕН ДВОРЕЦ НА СПОРТА","lat":42.64458913380161,"publicNameEN":"WINTER SPORT PALACE","lon":23.34193536025767,"id":"0741"},{"code":"0742","publicName":"ЗИМЕН ДВОРЕЦ НА СПОРТА","lat":42.64453233994499,"publicNameEN":"WINTER SPORT PALACE","lon":23.342013793987373,"id":"0742"},{"code":"0743","publicName":"СОФАРМА АД","lat":42.73592400306441,"publicNameEN":"SOFARMA JSC","lon":23.31743180187268,"id":"0743"},{"code":"0744","publicName":"СОФАРМА АД","lat":42.73517248743593,"publicNameEN":"SOFARMA JSC","lon":23.317437648907337,"id":"0744"},{"code":"0745","publicName":"СОФАРМА АД","lat":42.73548274025672,"publicNameEN":"SOFARMA JSC","lon":23.317526264173367,"id":"0745"},{"code":"0746","publicName":"СОФАРМА АД","lat":42.73604050611056,"publicNameEN":"SOFARMA JSC","lon":23.317631757700784,"id":"0746"},{"code":"0749","publicName":"ЗООПАРКА","lat":42.658268867538986,"publicNameEN":"CITY ZOO","lon":23.328488159333798,"id":"0749"},